{
 "COPYRIGHT": "The data included in this document is from www.openstreetmap.org. The data is made available under ODbL.",
 "type": "FeatureCollection",
 "features": [
  {
   "type": "Feature",
   "geometry": {
    "type": "Point",
    "coordinates": [
     5.7201841,
     45.1935591
    ]
   },
   "properties": {
    "name": "",
    "opening_hours": "Apr 1-Sep 15 09:00-20:00; Sep 16-Mar 31 09:00-18:00"
   }
  },
  {
   "type": "Feature",
   "geometry": {
    "type": "Point",
    "coordinates": [
     5.7143182,
     45.1884304
    ]
   },
   "properties": {
    "name": "Pharmacie Saint-Bruno",
    "opening_hours": "Mo-Sa 08:30-20:00"
   }
  },
  {
   "type": "Feature",
   "geometry": {
    "type": "Point",
    "coordinates": [
     5.7245989,
     45.1718468
    ]
   },
   "properties": {
    "name": "Pharmacie de l'Alliance",
    "opening_hours": "Mo-Fr 08:30-12:30,14:00-19:30; Sa 09:00-12:30,14:00-19:00"
   }
  },
  {
   "type": "Feature",
   "geometry": {
    "type": "Point",
    "coordinates": [
     5.7572669,
     45.1646455
    ]
   },
   "properties": {
    "name": "Satoriz Grenoble",
    "opening_hours": "Mo-Sa 08:30-19:30"
   }
  },
  {
   "type": "Feature",
   "geometry": {
    "type": "Point",
    "coordinates": [
     5.7230426,
     45.1662854
    ]
   },
   "properties": {
    "name": "Crédit Mutuel",
    "opening_hours": "Tu,We,Fr 09:00-12:30,13:30-17:30; Th 09:00-12:00,15:00-17:30; Sa 08:00-12:30"
   }
  },
  {
   "type": "Feature",
   "geometry": {
    "type": "Point",
    "coordinates": [
     5.7239018,
     45.1869361
    ]
   },
   "properties": {
    "name": "Le Subway",
    "opening_hours": "Mo-Sa 10:00-01:00, Su 14:00-01:00"
   }
  },
  {
   "type": "Feature",
   "geometry": {
    "type": "Point",
    "coordinates": [
     5.740941,
     45.1780447
    ]
   },
   "properties": {
    "name": "La Poste Grenoble Bajatière",
    "opening_hours": "Mo-We,Fr 08:15-13:15, Th 08:15-11:45, Sa 08:30-12:00"
   }
  },
  {
   "type": "Feature",
   "geometry": {
    "type": "Point",
    "coordinates": [
     5.731846,
     45.1864228
    ]
   },
   "properties": {
    "name": "Spar",
    "opening_hours": "Mo-Sa 07:00-21:00; Su 08:30-13:00"
   }
  },
  {
   "type": "Feature",
   "geometry": {
    "type": "Point",
    "coordinates": [
     5.7248973,
     45.1809898
    ]
   },
   "properties": {
    "name": "5àsec",
    "opening_hours": "Mo-Sa 08:00-18:00, Sa 10:00-16:00"
   }
  },
  {
   "type": "Feature",
   "geometry": {
    "type": "Point",
    "coordinates": [
     5.7207564,
     45.1883532
    ]
   },
   "properties": {
    "name": "Casino",
    "opening_hours": "Mo-Sa 08:30-20:00; Su 08:30-12:30"
   }
  },
  {
   "type": "Feature",
   "geometry": {
    "type": "Point",
    "coordinates": [
     5.7244382,
     45.1896956
    ]
   },
   "properties": {
    "name": "Burger King",
    "opening_hours": "Mo-Su 11:00-23:00"
   }
  },
  {
   "type": "Feature",
   "geometry": {
    "type": "Point",
    "coordinates": [
     5.7219949,
     45.1855142
    ]
   },
   "properties": {
    "name": "Chez Nous",
    "opening_hours": "Mo-Sa \"le midi\"; Fr \"le midi\", 18:00-21:00"
   }
  },
  {
   "type": "Feature",
   "geometry": {
    "type": "Point",
    "coordinates": [
     5.7219375,
     45.1853315
    ]
   },
   "properties": {
    "name": "Crédit Agricole",
    "opening_hours": "Tu-Sa 09:00-12:30; Th 09:30-12:30"
   }
  },
  {
   "type": "Feature",
   "geometry": {
    "type": "Point",
    "coordinates": [
     5.7222215,
     45.1855119
    ]
   },
   "properties": {
    "name": "Pharmacie Championnet",
    "opening_hours": "Mo-Sa 08:00-19:30"
   }
  },
  {
   "type": "Feature",
   "geometry": {
    "type": "Point",
    "coordinates": [
     5.7225628,
     45.1858194
    ]
   },
   "properties": {
    "name": "Carrefour Express",
    "opening_hours": "Mo-Sa 07:30-21:00, Su 08:30-12:30"
   }
  },
  {
   "type": "Feature",
   "geometry": {
    "type": "Point",
    "coordinates": [
     5.7244367,
     45.1880003
    ]
   },
   "properties": {
    "name": "BNP Paribas",
    "opening_hours": "Mo-Fr 08:45-12:00,13:15-17:30"
   }
  },
  {
   "type": "Feature",
   "geometry": {
    "type": "Point",
    "coordinates": [
     5.7226131,
     45.1865272
    ]
   },
   "properties": {
    "name": "Café Suzon",
    "opening_hours": "We-Th 12:00-19:00; Fr-Sa 12:00-21:00; Su 11:00-15:00"
   }
  },
  {
   "type": "Feature",
   "geometry": {
    "type": "Point",
    "coordinates": [
     5.7218722,
     45.1879753
    ]
   },
   "properties": {
    "name": "La Salsita",
    "opening_hours": "Mo-Fr 11:30-15:00,18:30-22:30; Sa 11:30-22:30"
   }
  },
  {
   "type": "Feature",
   "geometry": {
    "type": "Point",
    "coordinates": [
     5.7232039,
     45.1879126
    ]
   },
   "properties": {
    "name": "Banque Palatine",
    "opening_hours": "Mo-Fr 08:30-12:15,13:30-17:00"
   }
  },
  {
   "type": "Feature",
   "geometry": {
    "type": "Point",
    "coordinates": [
     5.7217381,
     45.1855392
    ]
   },
   "properties": {
    "name": "Katmandou",
    "opening_hours": "Mo-Sa 12:00-14:00,19:00-22:00"
   }
  },
  {
   "type": "Feature",
   "geometry": {
    "type": "Point",
    "coordinates": [
     5.7203341,
     45.1853672
    ]
   },
   "properties": {
    "name": "Pharmacie du Progrès",
    "opening_hours": "Mo-Sa 08:30-12:15, Mo-Fr 14:00-19:15, Sa 14:30-18:30"
   }
  },
  {
   "type": "Feature",
   "geometry": {
    "type": "Point",
    "coordinates": [
     5.7204375,
     45.1851904
    ]
   },
   "properties": {
    "name": "day by day - Mon épicerie en vrac",
    "opening_hours": "Tu-Su 09:30-13:00, 15:00-19:30"
   }
  },
  {
   "type": "Feature",
   "geometry": {
    "type": "Point",
    "coordinates": [
     5.7323316,
     45.1816198
    ]
   },
   "properties": {
    "name": "Spar",
    "opening_hours": "Mo-Sa 08:00-21:00; Su 08:30-13:00"
   }
  },
  {
   "type": "Feature",
   "geometry": {
    "type": "Point",
    "coordinates": [
     5.7308383,
     45.1887423
    ]
   },
   "properties": {
    "name": "Tribunal administratif",
    "opening_hours": "Mo-Fr 08:30-12:00,13:30-16:00"
   }
  },
  {
   "type": "Feature",
   "geometry": {
    "type": "Point",
    "coordinates": [
     5.7296886,
     45.1903307
    ]
   },
   "properties": {
    "name": "Grenoble République",
    "opening_hours": "Mo,We-Fr 09:00-18:00; Tu 09:00-12:00,14:00-18:00; Sa 09:00-12:00; PH off; 2022 Apr 26 off"
   }
  },
  {
   "type": "Feature",
   "geometry": {
    "type": "Point",
    "coordinates": [
     5.7301267,
     45.1903483
    ]
   },
   "properties": {
    "name": "Maison du Tourisme",
    "opening_hours": "Mo 13:00-18:00; Tu-Fr 10:00-18:00; Sa 10:00-13:00,14:00-18:00; PH 09:00-12:00"
   }
  },
  {
   "type": "Feature",
   "geometry": {
    "type": "Point",
    "coordinates": [
     5.7280524,
     45.1902849
    ]
   },
   "properties": {
    "name": "Grande Pharmacie Normale",
    "opening_hours": "Mo-Sa 09:00-19:30"
   }
  },
  {
   "type": "Feature",
   "geometry": {
    "type": "Point",
    "coordinates": [
     5.7261251,
     45.1902905
    ]
   },
   "properties": {
    "name": "McDonald's",
    "opening_hours": "Mo-Su 10:30-23:00"
   }
  },
  {
   "type": "Feature",
   "geometry": {
    "type": "Point",
    "coordinates": [
     5.7230467,
     45.1881728
    ]
   },
   "properties": {
    "name": "HSBC",
    "opening_hours": "Mo-Fr 08:45-12:15,14:00-17:00"
   }
  },
  {
   "type": "Feature",
   "geometry": {
    "type": "Point",
    "coordinates": [
     5.7250075,
     45.1896184
    ]
   },
   "properties": {
    "name": "LCL",
    "opening_hours": "Mo-Fr 08:45-12:00,13:30-17:45"
   }
  },
  {
   "type": "Feature",
   "geometry": {
    "type": "Point",
    "coordinates": [
     5.715956,
     45.190531
    ]
   },
   "properties": {
    "name": "Continental Bar",
    "opening_hours": "Mo-Fr 07:45-19:15, Su 13:45-19:15"
   }
  },
  {
   "type": "Feature",
   "geometry": {
    "type": "Point",
    "coordinates": [
     5.7181274,
     45.1898697
    ]
   },
   "properties": {
    "name": "Pharmacie de la Gare",
    "opening_hours": "Mo-Fr 09:00-12:30,14:00-19:15"
   }
  },
  {
   "type": "Feature",
   "geometry": {
    "type": "Point",
    "coordinates": [
     5.7197965,
     45.1892424
    ]
   },
   "properties": {
    "name": "Pharmacie Alsace-Lorraine",
    "opening_hours": "Mo-Fr 08:30-19:30; Sa 08:30-12:30,14:00-19:30"
   }
  },
  {
   "type": "Feature",
   "geometry": {
    "type": "Point",
    "coordinates": [
     5.7440418,
     45.1863789
    ]
   },
   "properties": {
    "name": "Pharmacie Clémenceau",
    "opening_hours": "Mo-Fr 09:00-12:00,14:00-19:00; Sa 09:00-12:00,14:00-18:00"
   }
  },
  {
   "type": "Feature",
   "geometry": {
    "type": "Point",
    "coordinates": [
     5.7286083,
     45.189539
    ]
   },
   "properties": {
    "name": "Les 6 Rex",
    "opening_hours": "Mo-Su 13:30-23:30"
   }
  },
  {
   "type": "Feature",
   "geometry": {
    "type": "Point",
    "coordinates": [
     5.7275604,
     45.1873
    ]
   },
   "properties": {
    "name": "Tacos Le Brizfaim",
    "opening_hours": "Mo-Su 11:00-24:00; Fr 15:00-24:00"
   }
  },
  {
   "type": "Feature",
   "geometry": {
    "type": "Point",
    "coordinates": [
     5.72376,
     45.1867994
    ]
   },
   "properties": {
    "name": "Le Café Curieux",
    "opening_hours": "Mo-Sa 10:00-14:00,18:00-24:00"
   }
  },
  {
   "type": "Feature",
   "geometry": {
    "type": "Point",
    "coordinates": [
     5.7197737,
     45.1911455
    ]
   },
   "properties": {
    "name": "Sun Valley",
    "opening_hours": "Mo-Sa 17:00-02:00"
   }
  },
  {
   "type": "Feature",
   "geometry": {
    "type": "Point",
    "coordinates": [
     5.7206817,
     45.1912248
    ]
   },
   "properties": {
    "name": "La Chandelle",
    "opening_hours": "Mo-Sa 11:00-14:00, 18:00-23:00; Su 18:00-23:00"
   }
  },
  {
   "type": "Feature",
   "geometry": {
    "type": "Point",
    "coordinates": [
     5.7220696,
     45.1903206
    ]
   },
   "properties": {
    "name": "BPE",
    "opening_hours": "Mo-Fr 09:00-12:30, Mo,We,Fr 13:30-17:30, Tu 15:00-17:30, Th 13:30-19:00"
   }
  },
  {
   "type": "Feature",
   "geometry": {
    "type": "Point",
    "coordinates": [
     5.7224195,
     45.1888344
    ]
   },
   "properties": {
    "name": "Mezzo di Pasta",
    "opening_hours": "Mo-Sa 11:00-21:00"
   }
  },
  {
   "type": "Feature",
   "geometry": {
    "type": "Point",
    "coordinates": [
     5.7223356,
     45.1892336
    ]
   },
   "properties": {
    "name": "Crédit Mutuel",
    "opening_hours": "Tu,We,Fr 09:00-12:30,13:30-17:30, Th 09:00-12:00,14:30-17:30, Sa 08:00-12:30"
   }
  },
  {
   "type": "Feature",
   "geometry": {
    "type": "Point",
    "coordinates": [
     5.7205422,
     45.1839127
    ]
   },
   "properties": {
    "name": "Milan's Pizza",
    "opening_hours": "Mo-Sa 11:00-15:00, 18:00-23:00; Su 18:00-23:00"
   }
  },
  {
   "type": "Feature",
   "geometry": {
    "type": "Point",
    "coordinates": [
     5.6724562,
     45.1985787
    ]
   },
   "properties": {
    "name": "Géant Casino",
    "opening_hours": "Mo-Sa 08:30-21:00; Su 09:00-12:30"
   }
  },
  {
   "type": "Feature",
   "geometry": {
    "type": "Point",
    "coordinates": [
     5.7354949,
     45.1959979
    ]
   },
   "properties": {
    "name": "BNP Paribas",
    "opening_hours": "Tu-Fr 08:30-12:15,13:30-18:00, Sa 08:30-12:30"
   }
  },
  {
   "type": "Feature",
   "geometry": {
    "type": "Point",
    "coordinates": [
     5.7356063,
     45.1961647
    ]
   },
   "properties": {
    "name": "Pharmacie des Trois Tours",
    "opening_hours": "Mo-Fr 08:45-12:30,14:00-19:30, Sa 09:00-12:00,14:00-18:30"
   }
  },
  {
   "type": "Feature",
   "geometry": {
    "type": "Point",
    "coordinates": [
     5.7321503,
     45.1932635
    ]
   },
   "properties": {
    "name": "Crêperie So Krep’",
    "opening_hours": "Mo-Su 11:30-22:30"
   }
  },
  {
   "type": "Feature",
   "geometry": {
    "type": "Point",
    "coordinates": [
     5.7314817,
     45.192384
    ]
   },
   "properties": {
    "name": "Banque Populaire",
    "opening_hours": "Tu,We,Fr 08:30-12:30, Tu-Fr 13:45-17:45; Th 08:30-12:00; Sa 08:00-12:30"
   }
  },
  {
   "type": "Feature",
   "geometry": {
    "type": "Point",
    "coordinates": [
     5.7243649,
     45.1904142
    ]
   },
   "properties": {
    "name": "CIC",
    "opening_hours": "Mo-Fr 08:50-12:30,13:30-17:45; Sa 09:00-12:20"
   }
  },
  {
   "type": "Feature",
   "geometry": {
    "type": "Point",
    "coordinates": [
     5.7244824,
     45.1901158
    ]
   },
   "properties": {
    "name": "Square Habitat",
    "opening_hours": "Mo-Th 09:30-12:30, 14:00-18:00; Fr 09:30-12:30; Su 09:30-12:30, 14:00-18:00"
   }
  },
  {
   "type": "Feature",
   "geometry": {
    "type": "Point",
    "coordinates": [
     5.7199949,
     45.1852283
    ]
   },
   "properties": {
    "name": "Épicerie Plus",
    "opening_hours": "Mo-Su 10:00-13:00,16:00-22:00"
   }
  },
  {
   "type": "Feature",
   "geometry": {
    "type": "Point",
    "coordinates": [
     5.7369941,
     45.197604
    ]
   },
   "properties": {
    "name": "LCL",
    "opening_hours": "Tu-Sa 08:30-12:00, Tu,We,Fr 01:30-17:45, Th 14:30-17:45"
   }
  },
  {
   "type": "Feature",
   "geometry": {
    "type": "Point",
    "coordinates": [
     5.716806,
     45.1801426
    ]
   },
   "properties": {
    "name": "Pharmacie des Boulevards",
    "opening_hours": "Mo-Fr 08:30-19:30; Sa 09:00-12:30,14:30-19:00"
   }
  },
  {
   "type": "Feature",
   "geometry": {
    "type": "Point",
    "coordinates": [
     5.7164133,
     45.1918983
    ]
   },
   "properties": {
    "name": "Crédit Mutuel",
    "opening_hours": "Tu-Sa 08:30-12:30, Tu-Fr 13:45-17:30"
   }
  },
  {
   "type": "Feature",
   "geometry": {
    "type": "Point",
    "coordinates": [
     5.7185492,
     45.1831242
    ]
   },
   "properties": {
    "name": "Pharmacie de l'Aigle",
    "opening_hours": "Mo 14:00-19:15, Tu-Sa 09:00-12:15,14:30-19:15"
   }
  },
  {
   "type": "Feature",
   "geometry": {
    "type": "Point",
    "coordinates": [
     5.7246775,
     45.1723165
    ]
   },
   "properties": {
    "name": "L'École du Chat Libre de Grenoble & Agglomération",
    "opening_hours": "Mo-Fr 15:00-18:30"
   }
  },
  {
   "type": "Feature",
   "geometry": {
    "type": "Point",
    "coordinates": [
     5.7225484,
     45.187727
    ]
   },
   "properties": {
    "name": "Hono Coffee House",
    "opening_hours": "Mo-Sa 09:00-18:00"
   }
  },
  {
   "type": "Feature",
   "geometry": {
    "type": "Point",
    "coordinates": [
     5.7200496,
     45.1899211
    ]
   },
   "properties": {
    "name": "Banque Populaire des Alpes",
    "opening_hours": "Mo-Fr 08:30-12:00,13:35-17:30"
   }
  },
  {
   "type": "Feature",
   "geometry": {
    "type": "Point",
    "coordinates": [
     5.7188685,
     45.188486
    ]
   },
   "properties": {
    "name": "Domino's Pizza",
    "opening_hours": "Mo-Fr 11:00-14:00,18:00-23:00; Sa 11:00-15:00,18:00-23:00; Su 11:00-23:00"
   }
  },
  {
   "type": "Feature",
   "geometry": {
    "type": "Point",
    "coordinates": [
     5.7317546,
     45.1924494
    ]
   },
   "properties": {
    "name": "Les Berthom",
    "opening_hours": "Mo-We 17:00-1:00; Th-Sa 17:00-2:00; Su 17:00-0:00"
   }
  },
  {
   "type": "Feature",
   "geometry": {
    "type": "Point",
    "coordinates": [
     5.7172106,
     45.1813395
    ]
   },
   "properties": {
    "name": "Nickel'",
    "opening_hours": "Mo-Su 07:30-21:30"
   }
  },
  {
   "type": "Feature",
   "geometry": {
    "type": "Point",
    "coordinates": [
     5.7220981,
     45.1885158
    ]
   },
   "properties": {
    "name": "Marché Franprix",
    "opening_hours": "Mo-Sa 08:00-21:00; Su 09:00-21:00"
   }
  },
  {
   "type": "Feature",
   "geometry": {
    "type": "Point",
    "coordinates": [
     5.7238106,
     45.1865887
    ]
   },
   "properties": {
    "name": "L'Échanson",
    "opening_hours": "Tu-Sa 09:30-12:15,14:15-19:30"
   }
  },
  {
   "type": "Feature",
   "geometry": {
    "type": "Point",
    "coordinates": [
     5.7186831,
     45.187932
    ]
   },
   "properties": {
    "name": "Monceau Fleurs",
    "opening_hours": "Mo-Sa 09:00-20:00; Su 09:30-13:00"
   }
  },
  {
   "type": "Feature",
   "geometry": {
    "type": "Point",
    "coordinates": [
     5.7264867,
     45.1904851
    ]
   },
   "properties": {
    "name": "C&A",
    "opening_hours": "Mo-Sa 09:30-19:00"
   }
  },
  {
   "type": "Feature",
   "geometry": {
    "type": "Point",
    "coordinates": [
     5.7263025,
     45.1903942
    ]
   },
   "properties": {
    "name": "Fnac Grenoble Victor Hugo",
    "opening_hours": "Mo-Sa 10:00-19:30"
   }
  },
  {
   "type": "Feature",
   "geometry": {
    "type": "Point",
    "coordinates": [
     5.7268628,
     45.1897917
    ]
   },
   "properties": {
    "name": "Jules",
    "opening_hours": "Mo-Sa 10:00-19:00; Su off"
   }
  },
  {
   "type": "Feature",
   "geometry": {
    "type": "Point",
    "coordinates": [
     5.7285097,
     45.1900394
    ]
   },
   "properties": {
    "name": "Riu Paris",
    "opening_hours": "Mo-Sa 09:30-19:00"
   }
  },
  {
   "type": "Feature",
   "geometry": {
    "type": "Point",
    "coordinates": [
     5.7288756,
     45.1900323
    ]
   },
   "properties": {
    "name": "Levi's",
    "opening_hours": "Mo-Fr 10:00-12:30,13:30-19:00, Sa 10:00-19:00"
   }
  },
  {
   "type": "Feature",
   "geometry": {
    "type": "Point",
    "coordinates": [
     5.727273,
     45.1900736
    ]
   },
   "properties": {
    "name": "IKKS Junior",
    "opening_hours": "Mo-Sa 10:00-19:00"
   }
  },
  {
   "type": "Feature",
   "geometry": {
    "type": "Point",
    "coordinates": [
     5.7250617,
     45.1884269
    ]
   },
   "properties": {
    "name": "Bimp",
    "opening_hours": "Tu-Sa 10:00-12:30, 14:00-19:00"
   }
  },
  {
   "type": "Feature",
   "geometry": {
    "type": "Point",
    "coordinates": [
     5.7186576,
     45.1859314
    ]
   },
   "properties": {
    "name": "Super Market express",
    "opening_hours": "Mo-Sa 08:00-20:00"
   }
  },
  {
   "type": "Feature",
   "geometry": {
    "type": "Point",
    "coordinates": [
     5.7187325,
     45.1861842
    ]
   },
   "properties": {
    "name": "Pharmacie Condorcet",
    "opening_hours": "Mo-Fr 08:30-19:00"
   }
  },
  {
   "type": "Feature",
   "geometry": {
    "type": "Point",
    "coordinates": [
     5.7187167,
     45.1861276
    ]
   },
   "properties": {
    "name": "Love People",
    "opening_hours": "Mo-Sa 17:00-02:00"
   }
  },
  {
   "type": "Feature",
   "geometry": {
    "type": "Point",
    "coordinates": [
     5.7187849,
     45.186346
    ]
   },
   "properties": {
    "name": "Lokmat Kadi",
    "opening_hours": "Sa-Th 12:00-14:30, Tu-Sa 19:30-22:30"
   }
  },
  {
   "type": "Feature",
   "geometry": {
    "type": "Point",
    "coordinates": [
     5.7189918,
     45.1857044
    ]
   },
   "properties": {
    "name": "Le Saké",
    "opening_hours": "Mo-Sa 12:00-14:00, Mo-Su 19:00-23:00"
   }
  },
  {
   "type": "Feature",
   "geometry": {
    "type": "Point",
    "coordinates": [
     5.7456274,
     45.1587417
    ]
   },
   "properties": {
    "name": "Le Fournil du Val",
    "opening_hours": "Tu-Su,PH 06:30-19:30"
   }
  },
  {
   "type": "Feature",
   "geometry": {
    "type": "Point",
    "coordinates": [
     5.7101444,
     45.1908309
    ]
   },
   "properties": {
    "name": "La Casa de Pitou",
    "opening_hours": "Mo-Fr 07:00-16:00"
   }
  },
  {
   "type": "Feature",
   "geometry": {
    "type": "Point",
    "coordinates": [
     5.7098303,
     45.1922276
    ]
   },
   "properties": {
    "name": "Pharmacie Centrale",
    "opening_hours": "Mo-Fr 08:30-13:30,14:30-19:00; Sa 08:30-12:30"
   }
  },
  {
   "type": "Feature",
   "geometry": {
    "type": "Point",
    "coordinates": [
     5.7233643,
     45.190576
    ]
   },
   "properties": {
    "name": "La Nef",
    "opening_hours": "Mo-Su 13:30-23:30"
   }
  },
  {
   "type": "Feature",
   "geometry": {
    "type": "Point",
    "coordinates": [
     5.732427,
     45.1943882
    ]
   },
   "properties": {
    "name": "Le 5",
    "opening_hours": "Mo-Su 10:00-24:00"
   }
  },
  {
   "type": "Feature",
   "geometry": {
    "type": "Point",
    "coordinates": [
     5.759765,
     45.1589619
    ]
   },
   "properties": {
    "name": "Epicuria",
    "opening_hours": "Mo-Su 06:30-20:00"
   }
  },
  {
   "type": "Feature",
   "geometry": {
    "type": "Point",
    "coordinates": [
     5.760242,
     45.1591935
    ]
   },
   "properties": {
    "name": "Carrefour Market",
    "opening_hours": "Mo-Su"
   }
  },
  {
   "type": "Feature",
   "geometry": {
    "type": "Point",
    "coordinates": [
     5.7489652,
     45.152582
    ]
   },
   "properties": {
    "name": "Le Petit Noyer",
    "opening_hours": "Mo-Fr 12:00-14:00 , 19:00-22:30"
   }
  },
  {
   "type": "Feature",
   "geometry": {
    "type": "Point",
    "coordinates": [
     5.7326627,
     45.1944701
    ]
   },
   "properties": {
    "name": "Bibliothèque du musée",
    "opening_hours": "Mo,We-Fr 14:00-18:00"
   }
  },
  {
   "type": "Feature",
   "geometry": {
    "type": "Point",
    "coordinates": [
     5.7299372,
     45.1928717
    ]
   },
   "properties": {
    "name": "L'Épicurien",
    "opening_hours": "Mo-Su,PH 12:00-14:00,19:00-22:30"
   }
  },
  {
   "type": "Feature",
   "geometry": {
    "type": "Point",
    "coordinates": [
     5.7389284,
     45.1985164
    ]
   },
   "properties": {
    "name": "Idyline",
    "opening_hours": "Tu,We,Fr 09:00-19:00, Th 10:00-20:00, Sa 08:30-14:00"
   }
  },
  {
   "type": "Feature",
   "geometry": {
    "type": "Point",
    "coordinates": [
     5.7216237,
     45.1903349
    ]
   },
   "properties": {
    "name": "La Cantina d'Anna",
    "opening_hours": "Tu-Fr 11:30-14:00,18:30-22:00; Sa 18:30-22:00; Su 18:30-21:00"
   }
  },
  {
   "type": "Feature",
   "geometry": {
    "type": "Point",
    "coordinates": [
     5.7597346,
     45.1594468
    ]
   },
   "properties": {
    "name": "Mairie",
    "opening_hours": "Mo 08:00-12:00,14:00-18:00; Tu 13:00-17:00; We 08:00-12:00,14:00-17:00; Th 14:00-18:00; Fr 08:00-12:00,13:00-17:00"
   }
  },
  {
   "type": "Feature",
   "geometry": {
    "type": "Point",
    "coordinates": [
     5.7624097,
     45.1860405
    ]
   },
   "properties": {
    "name": "Médor et Compagnie",
    "opening_hours": "Mo-Sa 09:00-19:30"
   }
  },
  {
   "type": "Feature",
   "geometry": {
    "type": "Point",
    "coordinates": [
     5.7332956,
     45.1925802
    ]
   },
   "properties": {
    "name": "Cairn",
    "opening_hours": "We-Th 13:00-18:00"
   }
  },
  {
   "type": "Feature",
   "geometry": {
    "type": "Point",
    "coordinates": [
     5.7089572,
     45.1927962
    ]
   },
   "properties": {
    "name": "Un instant gourmand",
    "opening_hours": "Mo-Fr 06:00-19:30; Sa 06:00-13:00"
   }
  },
  {
   "type": "Feature",
   "geometry": {
    "type": "Point",
    "coordinates": [
     5.7242638,
     45.1863801
    ]
   },
   "properties": {
    "name": "Le Contraste",
    "opening_hours": "15:30-01:00"
   }
  },
  {
   "type": "Feature",
   "geometry": {
    "type": "Point",
    "coordinates": [
     5.7242057,
     45.186465
    ]
   },
   "properties": {
    "name": "Stylmachine - Dainese",
    "opening_hours": "Tu-Sa 10:00-12:30,14:00-19:00"
   }
  },
  {
   "type": "Feature",
   "geometry": {
    "type": "Point",
    "coordinates": [
     5.7242754,
     45.1882758
    ]
   },
   "properties": {
    "name": "Deshairs Musique",
    "opening_hours": "Tu-Sa 10:00-13:00, 14:00-18:30; Mo, Su 14:00-18:00"
   }
  },
  {
   "type": "Feature",
   "geometry": {
    "type": "Point",
    "coordinates": [
     5.7254511,
     45.1893126
    ]
   },
   "properties": {
    "name": "Hugo Boss",
    "opening_hours": "Mo-Sa 10:00-19:00"
   }
  },
  {
   "type": "Feature",
   "geometry": {
    "type": "Point",
    "coordinates": [
     5.7153318,
     45.1840971
    ]
   },
   "properties": {
    "name": "uN p'Tit véLo dAnS La Tête",
    "opening_hours": "Mo-Th 17:00-21:00; Fr 09:00-12:00; We 20:00-22:00; Th 16:00-20:00; Sa 10:00-13:00; SH; PH"
   }
  },
  {
   "type": "Feature",
   "geometry": {
    "type": "Point",
    "coordinates": [
     5.7132295,
     45.1882722
    ]
   },
   "properties": {
    "name": "Delas Traiteur",
    "opening_hours": "Tu-Fr 07:00-14:30,16:00-19:30; Mo 07:00-14:30; Sa 08:00-13:00"
   }
  },
  {
   "type": "Feature",
   "geometry": {
    "type": "Point",
    "coordinates": [
     5.7112873,
     45.1886112
    ]
   },
   "properties": {
    "name": "Casino Shop",
    "opening_hours": "Mo-Sa 08:00-20:00; Su 09:00-13:00"
   }
  },
  {
   "type": "Feature",
   "geometry": {
    "type": "Point",
    "coordinates": [
     5.7224698,
     45.1857356
    ]
   },
   "properties": {
    "name": "La Talemelerie",
    "opening_hours": "Mo-Fr 06:30-20:00; Sa 06:30-19:30"
   }
  },
  {
   "type": "Feature",
   "geometry": {
    "type": "Point",
    "coordinates": [
     5.7230978,
     45.1853912
    ]
   },
   "properties": {
    "name": "Regard d'Ailleurs",
    "opening_hours": "Tu-Sa 10:00-19:00"
   }
  },
  {
   "type": "Feature",
   "geometry": {
    "type": "Point",
    "coordinates": [
     5.7084883,
     45.1794206
    ]
   },
   "properties": {
    "name": "Antigone",
    "opening_hours": "We 18:30-21:30; Su 16:00-19:00"
   }
  },
  {
   "type": "Feature",
   "geometry": {
    "type": "Point",
    "coordinates": [
     5.7221343,
     45.1691667
    ]
   },
   "properties": {
    "name": "Alpins primeurs",
    "opening_hours": "Mo-Sa 07:30-12:30, 15:00-19:30; Su 08:00-12:30"
   }
  },
  {
   "type": "Feature",
   "geometry": {
    "type": "Point",
    "coordinates": [
     5.7169397,
     45.1864463
    ]
   },
   "properties": {
    "name": "City Lavery",
    "opening_hours": "Mo-Su 08:00-21:00"
   }
  },
  {
   "type": "Feature",
   "geometry": {
    "type": "Point",
    "coordinates": [
     5.7181393,
     45.1863082
    ]
   },
   "properties": {
    "name": "Mon Petit Jean",
    "opening_hours": "Mo,Sa 14:00-19:00; Tu-Fr 10:00-12:30,13:30-19:00"
   }
  },
  {
   "type": "Feature",
   "geometry": {
    "type": "Point",
    "coordinates": [
     5.7193258,
     45.1878869
    ]
   },
   "properties": {
    "name": "Sésame",
    "opening_hours": "Mo-Sa 06:00-21:00; Su 06:00-20:00"
   }
  },
  {
   "type": "Feature",
   "geometry": {
    "type": "Point",
    "coordinates": [
     5.7195167,
     45.1878768
    ]
   },
   "properties": {
    "name": "Caixa Geral de Depósitos",
    "opening_hours": "Tu-Sa 09:10-12:30; Tu-Fr 13:30-17:00; Sa 13:30-16:45"
   }
  },
  {
   "type": "Feature",
   "geometry": {
    "type": "Point",
    "coordinates": [
     5.7199109,
     45.1880971
    ]
   },
   "properties": {
    "name": "La Vie Claire",
    "opening_hours": "Mo 14:00-19:30; Tu-Sa 09:00-19:30"
   }
  },
  {
   "type": "Feature",
   "geometry": {
    "type": "Point",
    "coordinates": [
     5.7199727,
     45.1884306
    ]
   },
   "properties": {
    "name": "GO Sport",
    "opening_hours": "Mo-Sa 09:30-19:30"
   }
  },
  {
   "type": "Feature",
   "geometry": {
    "type": "Point",
    "coordinates": [
     5.7213795,
     45.1880132
    ]
   },
   "properties": {
    "name": "Pharmacie Pissas",
    "opening_hours": "Mo 13:30-20:00, Tu-Fr 08:30-20:00, Sa 08:30-19:30"
   }
  },
  {
   "type": "Feature",
   "geometry": {
    "type": "Point",
    "coordinates": [
     5.721503,
     45.1879983
    ]
   },
   "properties": {
    "name": "Aubail Loret Opticiens",
    "opening_hours": "Tu-Sa 09:30-19:00"
   }
  },
  {
   "type": "Feature",
   "geometry": {
    "type": "Point",
    "coordinates": [
     5.7153387,
     45.1805534
    ]
   },
   "properties": {
    "name": "Monoprix",
    "opening_hours": "Mo-Sa 08:00-21:00; Su 09:00-20:00"
   }
  },
  {
   "type": "Feature",
   "geometry": {
    "type": "Point",
    "coordinates": [
     5.718238,
     45.1866006
    ]
   },
   "properties": {
    "name": "Fast n'good",
    "opening_hours": "Mo-Th 11:30-14:30,17:30-23:00; Fr 11:30-13:30,17:30-23:00; Sa-Su 11:30-14:30,17:30-23:00"
   }
  },
  {
   "type": "Feature",
   "geometry": {
    "type": "Point",
    "coordinates": [
     5.7183659,
     45.1869798
    ]
   },
   "properties": {
    "name": "Le Bombay",
    "opening_hours": "Tu-Su 12:00-13:30, 19:00-22:30"
   }
  },
  {
   "type": "Feature",
   "geometry": {
    "type": "Point",
    "coordinates": [
     5.7094042,
     45.1784336
    ]
   },
   "properties": {
    "name": "Le Café des Enfants",
    "opening_hours": "Mo-Sa 09:00-18:00"
   }
  },
  {
   "type": "Feature",
   "geometry": {
    "type": "Point",
    "coordinates": [
     5.7048949,
     45.1796121
    ]
   },
   "properties": {
    "name": "Chicken Alpes",
    "opening_hours": "Sa-Th 11:00-23:30, Fr 14:30-23:30"
   }
  },
  {
   "type": "Feature",
   "geometry": {
    "type": "Point",
    "coordinates": [
     5.7383647,
     45.198742
    ]
   },
   "properties": {
    "name": "La Gerbe d'or",
    "opening_hours": "Tu-Sa 06:30-19:30, Su 06:30-13:00"
   }
  },
  {
   "type": "Feature",
   "geometry": {
    "type": "Point",
    "coordinates": [
     5.7371314,
     45.1976984
    ]
   },
   "properties": {
    "name": "Droguerie de l'Île Verte",
    "opening_hours": "Tu-Sa 09:00-12:30,15:00-19:00"
   }
  },
  {
   "type": "Feature",
   "geometry": {
    "type": "Point",
    "coordinates": [
     5.7157615,
     45.1897516
    ]
   },
   "properties": {
    "name": "Chez Pierre",
    "opening_hours": "Mo-Fr 11:45-14:00,18:45-23:00, Su 18:45-23:00"
   }
  },
  {
   "type": "Feature",
   "geometry": {
    "type": "Point",
    "coordinates": [
     5.715844,
     45.1898754
    ]
   },
   "properties": {
    "name": "L'Arrêt Gourmand",
    "opening_hours": "Mo-Fr 04:00-19:45; Sa 04:00-15:00"
   }
  },
  {
   "type": "Feature",
   "geometry": {
    "type": "Point",
    "coordinates": [
     5.7293031,
     45.1902902
    ]
   },
   "properties": {
    "name": "Bibliothèque Centre-Ville",
    "opening_hours": "Mo off; Tu 13:00-18:30; We, Sa 11:00-18:30; Th, Fr 13:00-18:30; PH 13:00-18:00"
   }
  },
  {
   "type": "Feature",
   "geometry": {
    "type": "Point",
    "coordinates": [
     5.7200794,
     45.189262
    ]
   },
   "properties": {
    "name": "Jean Louis David",
    "opening_hours": "Tu-Sa 09:30-19:00; Mo 10:00-19:00"
   }
  },
  {
   "type": "Feature",
   "geometry": {
    "type": "Point",
    "coordinates": [
     5.7191494,
     45.1873511
    ]
   },
   "properties": {
    "name": "Droguerie Alpes Couleurs",
    "opening_hours": "Tu-Fr 07:30-16:00; Sa 08:00-16:00"
   }
  },
  {
   "type": "Feature",
   "geometry": {
    "type": "Point",
    "coordinates": [
     5.7190141,
     45.1870248
    ]
   },
   "properties": {
    "name": "Lanka",
    "opening_hours": "Mo-Su 11:00-14:00,19:00-23:00"
   }
  },
  {
   "type": "Feature",
   "geometry": {
    "type": "Point",
    "coordinates": [
     5.7393212,
     45.170356
    ]
   },
   "properties": {
    "name": "Le Pétrin de Malherbe",
    "opening_hours": "Tu-Fr 06:00-19:30;Sa 06:30-19:30;Su 06:30-13:00"
   }
  },
  {
   "type": "Feature",
   "geometry": {
    "type": "Point",
    "coordinates": [
     5.7306027,
     45.1923
    ]
   },
   "properties": {
    "name": "Pharmacie de la Fontaine",
    "opening_hours": "Mo 09:30-19:30, Tu-Sa 09:00-19:30"
   }
  },
  {
   "type": "Feature",
   "geometry": {
    "type": "Point",
    "coordinates": [
     5.7458223,
     45.1862166
    ]
   },
   "properties": {
    "name": "Boulangerie Cagol",
    "opening_hours": "Th-Tu 06:00-20:00"
   }
  },
  {
   "type": "Feature",
   "geometry": {
    "type": "Point",
    "coordinates": [
     5.7495521,
     45.1853961
    ]
   },
   "properties": {
    "name": "Utile",
    "opening_hours": "Mo-Sa 08:00-20:00; Su 08:30-12:30"
   }
  },
  {
   "type": "Feature",
   "geometry": {
    "type": "Point",
    "coordinates": [
     5.7492323,
     45.1854799
    ]
   },
   "properties": {
    "name": "Au craquant d'automne",
    "opening_hours": "Mo-Sa 06:00-20:00; Su 06:00-19:30"
   }
  },
  {
   "type": "Feature",
   "geometry": {
    "type": "Point",
    "coordinates": [
     5.7323335,
     45.1870373
    ]
   },
   "properties": {
    "name": "Shannon Pub",
    "opening_hours": "Mo-Sa 17:00-02:00"
   }
  },
  {
   "type": "Feature",
   "geometry": {
    "type": "Point",
    "coordinates": [
     5.7112371,
     45.1884064
    ]
   },
   "properties": {
    "name": "Crédit Agricole",
    "opening_hours": "Tu-Fr 09:00-12:30, Sa 08:00-12:30, Tu,We,Fr 15:00-18:00, Th 15:00-18:30"
   }
  },
  {
   "type": "Feature",
   "geometry": {
    "type": "Point",
    "coordinates": [
     5.7249042,
     45.1901372
    ]
   },
   "properties": {
    "name": "Oscar",
    "opening_hours": "Tu-Sa 09:00-19:00; Mo 14:00-19:00"
   }
  },
  {
   "type": "Feature",
   "geometry": {
    "type": "Point",
    "coordinates": [
     5.7525996,
     45.187833
    ]
   },
   "properties": {
    "name": "Le Fournil des Traditions",
    "opening_hours": "Mo-Fr 06:00-20:30; Sa-Su 06:00-19:30"
   }
  },
  {
   "type": "Feature",
   "geometry": {
    "type": "Point",
    "coordinates": [
     5.7112116,
     45.1944301
    ]
   },
   "properties": {
    "name": "Natur' Blé",
    "opening_hours": "Mo-Fr 07:00-18:00"
   }
  },
  {
   "type": "Feature",
   "geometry": {
    "type": "Point",
    "coordinates": [
     5.7636008,
     45.2035964
    ]
   },
   "properties": {
    "name": "McDonald's",
    "opening_hours": "Tu-Sa 08:00-24:00; Su,Mo 08:00-23:00"
   }
  },
  {
   "type": "Feature",
   "geometry": {
    "type": "Point",
    "coordinates": [
     5.7189015,
     45.1885847
    ]
   },
   "properties": {
    "name": "Le Tacos de Grenoble",
    "opening_hours": "Mo-Su 11:00-02:00"
   }
  },
  {
   "type": "Feature",
   "geometry": {
    "type": "Point",
    "coordinates": [
     5.7633087,
     45.2074649
    ]
   },
   "properties": {
    "name": "Bibliothèque Simone Lagrange - Mi-Plaine",
    "opening_hours": "Tu 15:00-19:00; We,Sa 15:00-18:00; Fr 16:00-19:00"
   }
  },
  {
   "type": "Feature",
   "geometry": {
    "type": "Point",
    "coordinates": [
     5.7081713,
     45.1803755
    ]
   },
   "properties": {
    "name": "Crédit Mutuel",
    "opening_hours": "Tu-Sa 08:30-12:00; Tu-Fr 13:30-17:30"
   }
  },
  {
   "type": "Feature",
   "geometry": {
    "type": "Point",
    "coordinates": [
     5.7580181,
     45.2121627
    ]
   },
   "properties": {
    "name": "L'Amandine",
    "opening_hours": "Mo-Sa 08:00-12:30; Mo-Sa 14:30-19:15; Su 08:00-13:00"
   }
  },
  {
   "type": "Feature",
   "geometry": {
    "type": "Point",
    "coordinates": [
     5.7164806,
     45.1858345
    ]
   },
   "properties": {
    "name": "L'Épicea",
    "opening_hours": "Tu-Su 06:30-19:30"
   }
  },
  {
   "type": "Feature",
   "geometry": {
    "type": "Point",
    "coordinates": [
     5.7233843,
     45.1800527
    ]
   },
   "properties": {
    "name": "Les Animos",
    "opening_hours": "Mo-Sa 08:00-11:30,14:00-18:30"
   }
  },
  {
   "type": "Feature",
   "geometry": {
    "type": "Point",
    "coordinates": [
     5.7247658,
     45.1764387
    ]
   },
   "properties": {
    "name": "Episol",
    "opening_hours": "Tu-Fr 10:00-13:00,15:00-19:00; Sa 10:00-13:00,15:00-18:00; Su off"
   }
  },
  {
   "type": "Feature",
   "geometry": {
    "type": "Point",
    "coordinates": [
     5.724485,
     45.1775249
    ]
   },
   "properties": {
    "name": "La Remise",
    "opening_hours": "Tu-Sa 09:30-12:30, 14:00-17:45"
   }
  },
  {
   "type": "Feature",
   "geometry": {
    "type": "Point",
    "coordinates": [
     5.7092981,
     45.179895
    ]
   },
   "properties": {
    "name": "Christian Coiffure",
    "opening_hours": "Tu-Fr 08:00-12:00,14:00-18:30, Sa 08:00-16:00"
   }
  },
  {
   "type": "Feature",
   "geometry": {
    "type": "Point",
    "coordinates": [
     5.709013,
     45.1798908
    ]
   },
   "properties": {
    "name": "Le Moulin Gourmand",
    "opening_hours": "Su-Fr 06:00-13:00, Mo-Th 14:30-19:30, Su 16:30-19:00"
   }
  },
  {
   "type": "Feature",
   "geometry": {
    "type": "Point",
    "coordinates": [
     5.7107458,
     45.1803609
    ]
   },
   "properties": {
    "name": "Garden Fleurs",
    "opening_hours": "Mo-Fr 09:00-19:00; Sa 08:00-20:00; Su 08:00-13:00"
   }
  },
  {
   "type": "Feature",
   "geometry": {
    "type": "Point",
    "coordinates": [
     5.705178,
     45.180565
    ]
   },
   "properties": {
    "name": "Casino Shop",
    "opening_hours": "Mo-Sa 08:00-21:00; Su 09:00-20:00"
   }
  },
  {
   "type": "Feature",
   "geometry": {
    "type": "Point",
    "coordinates": [
     5.7066721,
     45.1798191
    ]
   },
   "properties": {
    "name": "Pharmacie Vallier-Catane",
    "opening_hours": "Mo-Sa 08:45-12:30, Mo-Fr 14:15-19:30"
   }
  },
  {
   "type": "Feature",
   "geometry": {
    "type": "Point",
    "coordinates": [
     5.7056915,
     45.180582
    ]
   },
   "properties": {
    "name": "Midas",
    "opening_hours": "Mo-Fr 08:00-19:00; Sa 08:00-17:00"
   }
  },
  {
   "type": "Feature",
   "geometry": {
    "type": "Point",
    "coordinates": [
     5.7060099,
     45.1802901
    ]
   },
   "properties": {
    "name": "Le Med",
    "opening_hours": "Mo-Th 07:00-23:00; Fr 07:00-24:00; Sa 08:00-24:00; Su 08:00-23:00; PH 09:00-23:00"
   }
  },
  {
   "type": "Feature",
   "geometry": {
    "type": "Point",
    "coordinates": [
     5.7058799,
     45.1802892
    ]
   },
   "properties": {
    "name": "Le Méditerranée",
    "opening_hours": "Mo-Th 07:00-23:00; Fr 07:00-24:00; Sa 08:00-12:00; Su 08:00-23:00; PH 09:00-23:00"
   }
  },
  {
   "type": "Feature",
   "geometry": {
    "type": "Point",
    "coordinates": [
     5.719765,
     45.1809167
    ]
   },
   "properties": {
    "name": "Auchan Supermarché",
    "opening_hours": "Mo-Sa 08:30-20:30, Su 08:30-12:45"
   }
  },
  {
   "type": "Feature",
   "geometry": {
    "type": "Point",
    "coordinates": [
     5.7269524,
     45.1810527
    ]
   },
   "properties": {
    "name": "La Talemelerie",
    "opening_hours": "Mo-Sa 06:30-19:30; Su 07:00-19:00"
   }
  },
  {
   "type": "Feature",
   "geometry": {
    "type": "Point",
    "coordinates": [
     5.7262148,
     45.1787764
    ]
   },
   "properties": {
    "name": "Pharmacie de la Capuche",
    "opening_hours": "Mo-Fr 08:30-12:30,14:00-19:00; Sa 08:30-12:30,14:00-19:15"
   }
  },
  {
   "type": "Feature",
   "geometry": {
    "type": "Point",
    "coordinates": [
     5.7283626,
     45.1928322
    ]
   },
   "properties": {
    "name": "Café de la Table Ronde",
    "opening_hours": "09:00-24:00"
   }
  },
  {
   "type": "Feature",
   "geometry": {
    "type": "Point",
    "coordinates": [
     5.718012,
     45.1828329
    ]
   },
   "properties": {
    "name": "Boulangerie de l'Aigle",
    "opening_hours": "Mo-Su 07:00-13:30,16:30-19:30"
   }
  },
  {
   "type": "Feature",
   "geometry": {
    "type": "Point",
    "coordinates": [
     5.7170504,
     45.1812018
    ]
   },
   "properties": {
    "name": "Mon Boucher",
    "opening_hours": "Tu-Sa 07:00-12:30,14:45-19:00"
   }
  },
  {
   "type": "Feature",
   "geometry": {
    "type": "Point",
    "coordinates": [
     5.762555,
     45.2096445
    ]
   },
   "properties": {
    "name": "Meylan Ayguinard",
    "opening_hours": "Mo-Fr 08:30-11:30,13:30-17:00; Sa 08:30-12:00"
   }
  },
  {
   "type": "Feature",
   "geometry": {
    "type": "Point",
    "coordinates": [
     5.7168274,
     45.1851012
    ]
   },
   "properties": {
    "name": "U Express",
    "opening_hours": "Mo-Sa 08:00-20:00; Su 08:00-13:00"
   }
  },
  {
   "type": "Feature",
   "geometry": {
    "type": "Point",
    "coordinates": [
     5.7299933,
     45.1759312
    ]
   },
   "properties": {
    "name": "Pharmacie Le Chatel",
    "opening_hours": "Tu-Fr 08:30-12:00, Mo-Sa 14:00-19:00, Sa 09:00-12:00"
   }
  },
  {
   "type": "Feature",
   "geometry": {
    "type": "Point",
    "coordinates": [
     5.7602634,
     45.2034778
    ]
   },
   "properties": {
    "name": "La Forêt Noire",
    "opening_hours": "Tu-Fr 09:30-12:30,15:00-19:30; Sa 09:00-12:30,14:30-19:30; Su 09:00-12:30"
   }
  },
  {
   "type": "Feature",
   "geometry": {
    "type": "Point",
    "coordinates": [
     5.7606702,
     45.2031855
    ]
   },
   "properties": {
    "name": "Boucherie Maison Froment",
    "opening_hours": "Tu-Sa 08:00-13:00,14:00-19:30"
   }
  },
  {
   "type": "Feature",
   "geometry": {
    "type": "Point",
    "coordinates": [
     5.7605951,
     45.2032384
    ]
   },
   "properties": {
    "name": "Crédit Mutuel",
    "opening_hours": "Tu-Fr 08:30-12:00,13:30-17:30; Sa 08:30-12:30"
   }
  },
  {
   "type": "Feature",
   "geometry": {
    "type": "Point",
    "coordinates": [
     5.7604029,
     45.2033757
    ]
   },
   "properties": {
    "name": "Clinique du mail",
    "opening_hours": "Mo-Fr 08:00-12:00,13:00-19:00"
   }
  },
  {
   "type": "Feature",
   "geometry": {
    "type": "Point",
    "coordinates": [
     5.7604863,
     45.2029844
    ]
   },
   "properties": {
    "name": "Caisse d'Épargne",
    "opening_hours": "Tu-Fr 09:15-12:30,13:30-17:00; Sa 08:45-12:30"
   }
  },
  {
   "type": "Feature",
   "geometry": {
    "type": "Point",
    "coordinates": [
     5.760721,
     45.2031458
    ]
   },
   "properties": {
    "name": "La Noisette",
    "opening_hours": "Tu-Fr 06:15-19:45; Su 06:30-19:30"
   }
  },
  {
   "type": "Feature",
   "geometry": {
    "type": "Point",
    "coordinates": [
     5.7283416,
     45.187991
    ]
   },
   "properties": {
    "name": "Parapharmacie Lachcar",
    "opening_hours": "Mo-Sa 09:00-20:00"
   }
  },
  {
   "type": "Feature",
   "geometry": {
    "type": "Point",
    "coordinates": [
     5.760111,
     45.2035862
    ]
   },
   "properties": {
    "name": "Oriade - Laboratoire d'analyses",
    "opening_hours": "Mo-Fr 07:00-18:00; Sa 07:00-12:00"
   }
  },
  {
   "type": "Feature",
   "geometry": {
    "type": "Point",
    "coordinates": [
     5.7605129,
     45.2033001
    ]
   },
   "properties": {
    "name": "Amplifon",
    "opening_hours": "Tu-Fr 08:45-12:00,14:00-18:30; Sa 08:30-12:30"
   }
  },
  {
   "type": "Feature",
   "geometry": {
    "type": "Point",
    "coordinates": [
     5.7603224,
     45.2034305
    ]
   },
   "properties": {
    "name": "Arnaud Witte",
    "opening_hours": "Mo-Fr 08:30-12:00,14:00-19:00; Sa 09:00-12:00"
   }
  },
  {
   "type": "Feature",
   "geometry": {
    "type": "Point",
    "coordinates": [
     5.7086481,
     45.1518381
    ]
   },
   "properties": {
    "name": "B&M",
    "opening_hours": "Mo-Fr 09:30-19:00; Sa 09:30-19:30; Su 10:00-19:00"
   }
  },
  {
   "type": "Feature",
   "geometry": {
    "type": "Point",
    "coordinates": [
     5.7083207,
     45.1518914
    ]
   },
   "properties": {
    "name": "Besson Chaussures",
    "opening_hours": "Mo-Sa 09:30-19:00; Su 10:00-13:00, 14:00-18:00"
   }
  },
  {
   "type": "Feature",
   "geometry": {
    "type": "Point",
    "coordinates": [
     5.7131246,
     45.168417
    ]
   },
   "properties": {
    "name": "Vival",
    "opening_hours": "Mo-Sa 07:30-19:30; Su 08:00-12:00"
   }
  },
  {
   "type": "Feature",
   "geometry": {
    "type": "Point",
    "coordinates": [
     5.7068554,
     45.1802941
    ]
   },
   "properties": {
    "name": "Leader Price Express",
    "opening_hours": "Mo-Sa 08:00-20:00"
   }
  },
  {
   "type": "Feature",
   "geometry": {
    "type": "Point",
    "coordinates": [
     5.7077755,
     45.1803109
    ]
   },
   "properties": {
    "name": "Laverie Vallier",
    "opening_hours": "Mo-Su 07:00-20:00"
   }
  },
  {
   "type": "Feature",
   "geometry": {
    "type": "Point",
    "coordinates": [
     5.7056257,
     45.1880303
    ]
   },
   "properties": {
    "name": "Carrefour City",
    "opening_hours": "Mo-Sa 07:00-22:00, Su 09:00-13:00"
   }
  },
  {
   "type": "Feature",
   "geometry": {
    "type": "Point",
    "coordinates": [
     5.7051394,
     45.1890215
    ]
   },
   "properties": {
    "name": "Le Tatone",
    "opening_hours": "Mo-Tu 11:45-15:00; We-Fr 11:45-15:00, 19:15-22:30; Sa 19:15-22:30"
   }
  },
  {
   "type": "Feature",
   "geometry": {
    "type": "Point",
    "coordinates": [
     5.7056587,
     45.188949
    ]
   },
   "properties": {
    "name": "Pharmacie des Arts",
    "opening_hours": "Mo-Fr 08:30-19:30; Sa 08:30-12:30,14:00-19:00"
   }
  },
  {
   "type": "Feature",
   "geometry": {
    "type": "Point",
    "coordinates": [
     5.7058992,
     45.185933
    ]
   },
   "properties": {
    "name": "URFA Royal",
    "opening_hours": "Mo-Sa 12:00-15:00,18:00-23:00"
   }
  },
  {
   "type": "Feature",
   "geometry": {
    "type": "Point",
    "coordinates": [
     5.7222295,
     45.1949797
    ]
   },
   "properties": {
    "name": "",
    "opening_hours": "5:00-1:00"
   }
  },
  {
   "type": "Feature",
   "geometry": {
    "type": "Point",
    "coordinates": [
     5.7239308,
     45.1925553
    ]
   },
   "properties": {
    "name": "Le Bukana",
    "opening_hours": "Tu-Sa 18:00-01:00"
   }
  },
  {
   "type": "Feature",
   "geometry": {
    "type": "Point",
    "coordinates": [
     5.7381162,
     45.1984845
    ]
   },
   "properties": {
    "name": "Casino Shop",
    "opening_hours": "Mo,Tu,Th-Sa 08:00-19:30, Su 09:00-13:00"
   }
  },
  {
   "type": "Feature",
   "geometry": {
    "type": "Point",
    "coordinates": [
     5.7377895,
     45.1978997
    ]
   },
   "properties": {
    "name": "Crédit Agricole",
    "opening_hours": "Tu-Fr 09:00-12:30, Sa 08:00-12:30"
   }
  },
  {
   "type": "Feature",
   "geometry": {
    "type": "Point",
    "coordinates": [
     5.7127077,
     45.197512
    ]
   },
   "properties": {
    "name": "Chez Marcel",
    "opening_hours": "Mo-Fr 7:00-19:00"
   }
  },
  {
   "type": "Feature",
   "geometry": {
    "type": "Point",
    "coordinates": [
     5.7246649,
     45.1857583
    ]
   },
   "properties": {
    "name": "Little Copains",
    "opening_hours": "Mo-Su 16:30-01:00"
   }
  },
  {
   "type": "Feature",
   "geometry": {
    "type": "Point",
    "coordinates": [
     5.7263251,
     45.1771491
    ]
   },
   "properties": {
    "name": "Laverie Stalingrad",
    "opening_hours": "Mo-Su 07:00-20:00"
   }
  },
  {
   "type": "Feature",
   "geometry": {
    "type": "Point",
    "coordinates": [
     5.7267877,
     45.1807634
    ]
   },
   "properties": {
    "name": "La Randonnée",
    "opening_hours": "Tu-Sa 10:00-12:30, Tu-Fr 14:30-19:00, Sa 14:30-18:00"
   }
  },
  {
   "type": "Feature",
   "geometry": {
    "type": "Point",
    "coordinates": [
     5.7263219,
     45.1800096
    ]
   },
   "properties": {
    "name": "Ludo le Maraîcher",
    "opening_hours": "Tu-Sa 07:30-19:30; Di 08:00-13:30"
   }
  },
  {
   "type": "Feature",
   "geometry": {
    "type": "Point",
    "coordinates": [
     5.7258782,
     45.1834021
    ]
   },
   "properties": {
    "name": "LCL",
    "opening_hours": "Tu-Fr 08:30-12:00,13:30-18:00; Th 08:30-12:00,14:30-18:00; Sa 08:45-12:00"
   }
  },
  {
   "type": "Feature",
   "geometry": {
    "type": "Point",
    "coordinates": [
     5.7159804,
     45.1800744
    ]
   },
   "properties": {
    "name": "Crédit Agricole",
    "opening_hours": "Tu 09:00-13:00,15:00-18:30; We 09:00-13:00,15:00-18:15; Th 09:00-13:00,15:00-18:30; Fr 09:00-13:00,15:00-18:00; Sa 08:30-12:00"
   }
  },
  {
   "type": "Feature",
   "geometry": {
    "type": "Point",
    "coordinates": [
     5.7183197,
     45.1802943
    ]
   },
   "properties": {
    "name": "La maison Adeline",
    "opening_hours": "Mo-We 14:00-18:00, Tu,We 09:00-12:00, Th,Fr 10:00-18:00"
   }
  },
  {
   "type": "Feature",
   "geometry": {
    "type": "Point",
    "coordinates": [
     5.7573233,
     45.1846881
    ]
   },
   "properties": {
    "name": "La Boîte à Skis",
    "opening_hours": "Tu-Sa 10:00-13:00, 15:00-19:00"
   }
  },
  {
   "type": "Feature",
   "geometry": {
    "type": "Point",
    "coordinates": [
     5.728507,
     45.1814477
    ]
   },
   "properties": {
    "name": "Bayrout",
    "opening_hours": "Tu-Sa 12:00-14:30,19:00-22:30"
   }
  },
  {
   "type": "Feature",
   "geometry": {
    "type": "Point",
    "coordinates": [
     5.7283193,
     45.1814768
    ]
   },
   "properties": {
    "name": "Le Marie Margaux",
    "opening_hours": "\"midi et soir du mercredi au samedi, dimanche midi\""
   }
  },
  {
   "type": "Feature",
   "geometry": {
    "type": "Point",
    "coordinates": [
     5.7177697,
     45.1896401
    ]
   },
   "properties": {
    "name": "Milleis Banque",
    "opening_hours": "Mo-Fr 08:45-12:30,13:30-17:00"
   }
  },
  {
   "type": "Feature",
   "geometry": {
    "type": "Point",
    "coordinates": [
     5.7165227,
     45.1870614
    ]
   },
   "properties": {
    "name": "OM Électronique",
    "opening_hours": "Tu-Sa 09:00-12:00, Sa 14:30-19:00, Tu-Fr 14:00-19:00"
   }
  },
  {
   "type": "Feature",
   "geometry": {
    "type": "Point",
    "coordinates": [
     5.758214,
     45.1826442
    ]
   },
   "properties": {
    "name": "L'Atlas",
    "opening_hours": "Mo-Su 11:00-14:30,18:00-23:00"
   }
  },
  {
   "type": "Feature",
   "geometry": {
    "type": "Point",
    "coordinates": [
     5.7583069,
     45.1826339
    ]
   },
   "properties": {
    "name": "Nickel'",
    "opening_hours": "Mo-Su 07:00-20:00"
   }
  },
  {
   "type": "Feature",
   "geometry": {
    "type": "Point",
    "coordinates": [
     5.7580661,
     45.1826848
    ]
   },
   "properties": {
    "name": "Pizza Pizz",
    "opening_hours": "Tu-Su 18:00-22:00"
   }
  },
  {
   "type": "Feature",
   "geometry": {
    "type": "Point",
    "coordinates": [
     5.7589889,
     45.1827063
    ]
   },
   "properties": {
    "name": "Pharmacie Emery-Briand",
    "opening_hours": "Mo-Fr 08:30-12:00,14:30-19:00; Sa 09:00-12:00,14:30-18:30"
   }
  },
  {
   "type": "Feature",
   "geometry": {
    "type": "Point",
    "coordinates": [
     5.7639519,
     45.1813676
    ]
   },
   "properties": {
    "name": "Pharmacie Croizat",
    "opening_hours": "Mo-Fr 08:30-12:30,14:00-19:30, Sa 14:00-18:30,08:30-12:30"
   }
  },
  {
   "type": "Feature",
   "geometry": {
    "type": "Point",
    "coordinates": [
     5.7633805,
     45.1812733
    ]
   },
   "properties": {
    "name": "Boulangerie Couto",
    "opening_hours": "Mo-Fr 06:30-13:00,16:00-19:00; Sa 07:00-12:30"
   }
  },
  {
   "type": "Feature",
   "geometry": {
    "type": "Point",
    "coordinates": [
     5.7535451,
     45.1838931
    ]
   },
   "properties": {
    "name": "Crédit Mutuel",
    "opening_hours": "Tu,We,Fr 08:00-17:30"
   }
  },
  {
   "type": "Feature",
   "geometry": {
    "type": "Point",
    "coordinates": [
     5.763501,
     45.2077857
    ]
   },
   "properties": {
    "name": "Spar",
    "opening_hours": "Mo-Sa 07:30-12:30,15:00-19:25; Su 08:00-12:30"
   }
  },
  {
   "type": "Feature",
   "geometry": {
    "type": "Point",
    "coordinates": [
     5.6982833,
     45.189025
    ]
   },
   "properties": {
    "name": "Caisse d'Épargne",
    "opening_hours": "Tu-Fr 08:45-12:30,13:30-18:00; Th 09:30-12:30,13:30-18:00; Sa 08:45-12:30"
   }
  },
  {
   "type": "Feature",
   "geometry": {
    "type": "Point",
    "coordinates": [
     5.7328721,
     45.1911268
    ]
   },
   "properties": {
    "name": "Café de France",
    "opening_hours": "Mo-Fr 07:30-20:30, Sa 08:00-14:30"
   }
  },
  {
   "type": "Feature",
   "geometry": {
    "type": "Point",
    "coordinates": [
     5.7330133,
     45.1903911
    ]
   },
   "properties": {
    "name": "L'Art du Vélo",
    "opening_hours": "Tu,Th 10:00-12:30, 14:00-19:00; We,Fr,Sa 10:00-12:30, 14:00-18:00"
   }
  },
  {
   "type": "Feature",
   "geometry": {
    "type": "Point",
    "coordinates": [
     5.7115485,
     45.1905345
    ]
   },
   "properties": {
    "name": "Bistrot d'Émile",
    "opening_hours": "Mo-Fr 07:00-24:00+"
   }
  },
  {
   "type": "Feature",
   "geometry": {
    "type": "Point",
    "coordinates": [
     5.7309032,
     45.1935277
    ]
   },
   "properties": {
    "name": "Flam's",
    "opening_hours": "Mo-Sa 19:00-00:45, Tu-Sa 12:00-15:00"
   }
  },
  {
   "type": "Feature",
   "geometry": {
    "type": "Point",
    "coordinates": [
     5.731162,
     45.191167
    ]
   },
   "properties": {
    "name": "Le Tord Boyaux",
    "opening_hours": "Tu-Sa 18:00-1:00"
   }
  },
  {
   "type": "Feature",
   "geometry": {
    "type": "Point",
    "coordinates": [
     5.7294621,
     45.1939409
    ]
   },
   "properties": {
    "name": "K Fée des Jeux",
    "opening_hours": "Tu-Sa 11:00-01:00, Su 16:00-23:00"
   }
  },
  {
   "type": "Feature",
   "geometry": {
    "type": "Point",
    "coordinates": [
     5.7623696,
     45.1852979
    ]
   },
   "properties": {
    "name": "Pharmacie Gabriel Péri",
    "opening_hours": "Mo 09:00-19:00, Tu-Sa 08:00-19:00"
   }
  },
  {
   "type": "Feature",
   "geometry": {
    "type": "Point",
    "coordinates": [
     5.7126821,
     45.1901233
    ]
   },
   "properties": {
    "name": "BNP Paribas",
    "opening_hours": "Mo-Fr 09:00-12:00,13:30-18:00"
   }
  },
  {
   "type": "Feature",
   "geometry": {
    "type": "Point",
    "coordinates": [
     5.7132938,
     45.1878117
    ]
   },
   "properties": {
    "name": "Bibliothèque Saint-Bruno",
    "opening_hours": "Tu,We,Fr 14:00-18:00; We,Sa 09:30-12:30; Sa 14:00-17:00; SH Sa 09:30-12:30; easter -1 day off"
   }
  },
  {
   "type": "Feature",
   "geometry": {
    "type": "Point",
    "coordinates": [
     5.7272338,
     45.1924988
    ]
   },
   "properties": {
    "name": "Bibliothèque Jardin de Ville",
    "opening_hours": "Tu,Fr 16:00-18:00, We,Sa 10:00-12:00, We 14:00-18:00, Sa 14:00-17:00"
   }
  },
  {
   "type": "Feature",
   "geometry": {
    "type": "Point",
    "coordinates": [
     5.7117633,
     45.1952171
    ]
   },
   "properties": {
    "name": "Bibliothèque municipale Internationale",
    "opening_hours": "Tu 17:00-19:00; We 14:00-18:00; Th 17:00-19:00; Fr 17:00-19:00; Sa 10:00-12:30,14:00-17:00; Aug off"
   }
  },
  {
   "type": "Feature",
   "geometry": {
    "type": "Point",
    "coordinates": [
     5.7298929,
     45.1927155
    ]
   },
   "properties": {
    "name": "La Ferme à Dédé",
    "opening_hours": "12:00-14:30,19:00-23:30"
   }
  },
  {
   "type": "Feature",
   "geometry": {
    "type": "Point",
    "coordinates": [
     5.7294478,
     45.1937057
    ]
   },
   "properties": {
    "name": "O' Callaghan",
    "opening_hours": "Mo-Fr 15:30-01:00; Sa 14:30-01:00; Su 14:30-24:00"
   }
  },
  {
   "type": "Feature",
   "geometry": {
    "type": "Point",
    "coordinates": [
     5.6876984,
     45.1930216
    ]
   },
   "properties": {
    "name": "Fontaine Cachin",
    "opening_hours": "Mo,We,Th,Fr 08:30-12:00,13:30-17:30; Tu 08:30-12:00,14:30-17:30"
   }
  },
  {
   "type": "Feature",
   "geometry": {
    "type": "Point",
    "coordinates": [
     5.6968871,
     45.192301
    ]
   },
   "properties": {
    "name": "Médiathèque Paul Éluard",
    "opening_hours": "Sep-Jun Tu,Fr 15:00-19:00; Sep-Jun We 10:00-13:00,15:00-19:00; Sep-Jun Sa 10:00-17:00; Jul-Aug Tu 15:00-19:00; Jul-Aug We-Sa 09:00-13:00; Jul-Aug Th off"
   }
  },
  {
   "type": "Feature",
   "geometry": {
    "type": "Point",
    "coordinates": [
     5.7346123,
     45.1920283
    ]
   },
   "properties": {
    "name": "Au Clair de Lune",
    "opening_hours": "Mo-Sa 12:00-14:30; Th, Fr 19:00-23:00"
   }
  },
  {
   "type": "Feature",
   "geometry": {
    "type": "Point",
    "coordinates": [
     5.7301574,
     45.1924053
    ]
   },
   "properties": {
    "name": "The Korner Pub",
    "opening_hours": "Mo-Sa 17:00-01:00"
   }
  },
  {
   "type": "Feature",
   "geometry": {
    "type": "Point",
    "coordinates": [
     5.7514595,
     45.1648743
    ]
   },
   "properties": {
    "name": "Bibliothèque André Malraux",
    "opening_hours": "Tu,Fr 15:00-19:00, We 10:00-12:00,14:00-18:00, Sa 09:00-12:00"
   }
  },
  {
   "type": "Feature",
   "geometry": {
    "type": "Point",
    "coordinates": [
     5.7242294,
     45.1770754
    ]
   },
   "properties": {
    "name": "Pharmacie de l'Acacia",
    "opening_hours": "Tu-Sa 09:00-12:30, Mo-Fr 15:00-19:30"
   }
  },
  {
   "type": "Feature",
   "geometry": {
    "type": "Point",
    "coordinates": [
     5.7248655,
     45.1763735
    ]
   },
   "properties": {
    "name": "Le Relax",
    "opening_hours": "Mo-Fr 07:00-13:30,15:30-19:00; Sa-Su 07:00-12:30"
   }
  },
  {
   "type": "Feature",
   "geometry": {
    "type": "Point",
    "coordinates": [
     5.7250568,
     45.1831183
    ]
   },
   "properties": {
    "name": "La ferme de Bonne",
    "opening_hours": "We-Fr 09:00-19:00; Sa 09:00-18:00"
   }
  },
  {
   "type": "Feature",
   "geometry": {
    "type": "Point",
    "coordinates": [
     5.7335898,
     45.1575706
    ]
   },
   "properties": {
    "name": "Bibliothèque des Relais Lecture",
    "opening_hours": "Mo 14:00-17:00, Tu-Fr 09:00-18:00"
   }
  },
  {
   "type": "Feature",
   "geometry": {
    "type": "Point",
    "coordinates": [
     5.6939808,
     45.1791383
    ]
   },
   "properties": {
    "name": "Banque Populaire des Alpes",
    "opening_hours": "Mo-Fr 09:00-12:15,14:00-17:45"
   }
  },
  {
   "type": "Feature",
   "geometry": {
    "type": "Point",
    "coordinates": [
     5.6988342,
     45.1924841
    ]
   },
   "properties": {
    "name": "Laverie de Fontaine",
    "opening_hours": "Mo-Su 07:00-20:00"
   }
  },
  {
   "type": "Feature",
   "geometry": {
    "type": "Point",
    "coordinates": [
     5.7265766,
     45.1881824
    ]
   },
   "properties": {
    "name": "La Bouquinerie",
    "opening_hours": "Tu-Sa 10:00-12:00,14:00-19:00"
   }
  },
  {
   "type": "Feature",
   "geometry": {
    "type": "Point",
    "coordinates": [
     5.731368,
     45.190791
    ]
   },
   "properties": {
    "name": "À l'Ouest",
    "opening_hours": "Mo-Sa 17:15-01:00"
   }
  },
  {
   "type": "Feature",
   "geometry": {
    "type": "Point",
    "coordinates": [
     5.7097006,
     45.1845869
    ]
   },
   "properties": {
    "name": "La Sirène",
    "opening_hours": "Mo-Su"
   }
  },
  {
   "type": "Feature",
   "geometry": {
    "type": "Point",
    "coordinates": [
     5.7090412,
     45.1909058
    ]
   },
   "properties": {
    "name": "La Friandise",
    "opening_hours": "Mo-Sa 07:00-19:00"
   }
  },
  {
   "type": "Feature",
   "geometry": {
    "type": "Point",
    "coordinates": [
     5.7134925,
     45.1884638
    ]
   },
   "properties": {
    "name": "Sandwicherie du Palais",
    "opening_hours": "Mo-Su 10:30-23:30"
   }
  },
  {
   "type": "Feature",
   "geometry": {
    "type": "Point",
    "coordinates": [
     5.7319582,
     45.1821751
    ]
   },
   "properties": {
    "name": "Picard",
    "opening_hours": "Mo-Th 09:00-13:00,14:30-19:30;Fr-Sa 09:00-19:30;Su 09:00-12:45"
   }
  },
  {
   "type": "Feature",
   "geometry": {
    "type": "Point",
    "coordinates": [
     5.7298937,
     45.1817777
    ]
   },
   "properties": {
    "name": "Au Chardon Bleu",
    "opening_hours": "Mo-Sa 06:45-19:45"
   }
  },
  {
   "type": "Feature",
   "geometry": {
    "type": "Point",
    "coordinates": [
     5.7297027,
     45.1812748
    ]
   },
   "properties": {
    "name": "Le Côte",
    "opening_hours": "Mo-Tu,Th-Sa 12:00-14:00,19:00-21:00; We 11:30-14:30,19:00-21:00"
   }
  },
  {
   "type": "Feature",
   "geometry": {
    "type": "Point",
    "coordinates": [
     5.7301375,
     45.1817791
    ]
   },
   "properties": {
    "name": "Pharmacie Albert Ier",
    "opening_hours": "Mo-Fr 08:30-13:00,14:00-19:00; Sa 09:00-12:30,14:30-18:30"
   }
  },
  {
   "type": "Feature",
   "geometry": {
    "type": "Point",
    "coordinates": [
     5.7177204,
     45.18993
    ]
   },
   "properties": {
    "name": "MGEN",
    "opening_hours": "\"Horaires adaptés aux mesures sanitaires en vigueur : sans RdV de 9h à 13h et avec RdV l'après-midi.\""
   }
  },
  {
   "type": "Feature",
   "geometry": {
    "type": "Point",
    "coordinates": [
     5.7066368,
     45.1888603
    ]
   },
   "properties": {
    "name": "Station Kebab",
    "opening_hours": "Mo-Su 11:00-23:00"
   }
  },
  {
   "type": "Feature",
   "geometry": {
    "type": "Point",
    "coordinates": [
     5.707633,
     45.1888002
    ]
   },
   "properties": {
    "name": "Laverie Automatique 2000",
    "opening_hours": "Mo-Su 07:00-21:30"
   }
  },
  {
   "type": "Feature",
   "geometry": {
    "type": "Point",
    "coordinates": [
     5.6853292,
     45.1917901
    ]
   },
   "properties": {
    "name": "Totem",
    "opening_hours": "Mo-Sa 08:00-13:00, 14:00-19:00"
   }
  },
  {
   "type": "Feature",
   "geometry": {
    "type": "Point",
    "coordinates": [
     5.7097305,
     45.1615977
    ]
   },
   "properties": {
    "name": "Clinique vétérinaire du Rondeau",
    "opening_hours": "Mo-Fr 08:00-12:00,14:00-19:00; Sa 08:00-12:00"
   }
  },
  {
   "type": "Feature",
   "geometry": {
    "type": "Point",
    "coordinates": [
     5.7097123,
     45.1615324
    ]
   },
   "properties": {
    "name": "Pharmacie Libération",
    "opening_hours": "Mo-Fr 08:30-12:30,14:30-19:00; Sa 08:30-12:30"
   }
  },
  {
   "type": "Feature",
   "geometry": {
    "type": "Point",
    "coordinates": [
     5.6920943,
     45.192251
    ]
   },
   "properties": {
    "name": "Boulangerie Ferrari",
    "opening_hours": "Mo-Fr 05:45-13:30,15:15-18:00; Sa 05:45-13:30"
   }
  },
  {
   "type": "Feature",
   "geometry": {
    "type": "Point",
    "coordinates": [
     5.7100505,
     45.162299
    ]
   },
   "properties": {
    "name": "Tabac Presse",
    "opening_hours": "Mo-Fr 06:00-19:00; Sa 07:00-19:00; Su 07:30-13:00"
   }
  },
  {
   "type": "Feature",
   "geometry": {
    "type": "Point",
    "coordinates": [
     5.727175,
     45.1883169
    ]
   },
   "properties": {
    "name": "Librairie Le Square",
    "opening_hours": "Mo 14:00-19:00; Tu-Sa 09:00-19:00"
   }
  },
  {
   "type": "Feature",
   "geometry": {
    "type": "Point",
    "coordinates": [
     5.7146321,
     45.1881806
    ]
   },
   "properties": {
    "name": "Krys",
    "opening_hours": "Mo-Sa 09:30-19:00"
   }
  },
  {
   "type": "Feature",
   "geometry": {
    "type": "Point",
    "coordinates": [
     5.7167316,
     45.1882675
    ]
   },
   "properties": {
    "name": "Le Phénicien",
    "opening_hours": "Mo 11:30-14:30; Tu-Sa 11:30-14:30, 18:00-22:30"
   }
  },
  {
   "type": "Feature",
   "geometry": {
    "type": "Point",
    "coordinates": [
     5.6833421,
     45.1911504
    ]
   },
   "properties": {
    "name": "3 Pom'",
    "opening_hours": "Mo-Th 09:00-12:00,13:30-17:00; Tu 09:00-12:00,13:30-19:00; Fr 09:00-14:30"
   }
  },
  {
   "type": "Feature",
   "geometry": {
    "type": "Point",
    "coordinates": [
     5.7299607,
     45.1924809
    ]
   },
   "properties": {
    "name": "Pain et Cie",
    "opening_hours": "Mo-Su 08:00-19:00"
   }
  },
  {
   "type": "Feature",
   "geometry": {
    "type": "Point",
    "coordinates": [
     5.7137908,
     45.1857692
    ]
   },
   "properties": {
    "name": "Franprix",
    "opening_hours": "Mo-Sa 07:30-20:30; Su 09:00-13:00"
   }
  },
  {
   "type": "Feature",
   "geometry": {
    "type": "Point",
    "coordinates": [
     5.763225,
     45.1695838
    ]
   },
   "properties": {
    "name": "Pharmacie du Village",
    "opening_hours": "Mo-Sa 08:30-12:00,14:30-19:00"
   }
  },
  {
   "type": "Feature",
   "geometry": {
    "type": "Point",
    "coordinates": [
     5.7634507,
     45.2081018
    ]
   },
   "properties": {
    "name": "Bel & Bo",
    "opening_hours": "Tu-Fr 09:00-19:00; Sa 09:00-17:30"
   }
  },
  {
   "type": "Feature",
   "geometry": {
    "type": "Point",
    "coordinates": [
     5.7634668,
     45.2079884
    ]
   },
   "properties": {
    "name": "Maison Latouche",
    "opening_hours": "Mo-Sa 06:30-13:00,16:00-19:00; Su 06:30-13:00"
   }
  },
  {
   "type": "Feature",
   "geometry": {
    "type": "Point",
    "coordinates": [
     5.7633971,
     45.2083664
    ]
   },
   "properties": {
    "name": "Poissonerie Moron",
    "opening_hours": "Tu-Sa 07:30-12:30,16:00-19:30; Su 08:00-13:00"
   }
  },
  {
   "type": "Feature",
   "geometry": {
    "type": "Point",
    "coordinates": [
     5.7636838,
     45.2033601
    ]
   },
   "properties": {
    "name": "Franck Provost",
    "opening_hours": "Mo-Sa 09:00-20:00"
   }
  },
  {
   "type": "Feature",
   "geometry": {
    "type": "Point",
    "coordinates": [
     5.7598823,
     45.158966
    ]
   },
   "properties": {
    "name": "Bibliothèque Georges Brassens",
    "opening_hours": "Mo 16:30-18:30; We 16:00-18:00; Fr 16:30-18:30; Sa 10:30-12:00"
   }
  },
  {
   "type": "Feature",
   "geometry": {
    "type": "Point",
    "coordinates": [
     5.7302602,
     45.1847087
    ]
   },
   "properties": {
    "name": "Poissonnerie Lachenal",
    "opening_hours": "Tu-Sa 07:30-12:30,16:00-19:00"
   }
  },
  {
   "type": "Feature",
   "geometry": {
    "type": "Point",
    "coordinates": [
     5.7163477,
     45.1836325
    ]
   },
   "properties": {
    "name": "Restaurant Dahu",
    "opening_hours": "Mo-Sa 11:30-21:30"
   }
  },
  {
   "type": "Feature",
   "geometry": {
    "type": "Point",
    "coordinates": [
     5.7344549,
     45.1813862
    ]
   },
   "properties": {
    "name": "Caisse d'Épargne",
    "opening_hours": "Tu-Fr 09:15-12:30,13:30-18:00; Sa 08:45-12:30; PH closed"
   }
  },
  {
   "type": "Feature",
   "geometry": {
    "type": "Point",
    "coordinates": [
     5.7345948,
     45.1818338
    ]
   },
   "properties": {
    "name": "Le Petit Casino",
    "opening_hours": "Mo-Sa 08:30-13:00,15:30-19:30"
   }
  },
  {
   "type": "Feature",
   "geometry": {
    "type": "Point",
    "coordinates": [
     5.7559145,
     45.1784184
    ]
   },
   "properties": {
    "name": "Carrefour Express",
    "opening_hours": "Mo-Sa 07:00-20:30; Su 08:30-18:00"
   }
  },
  {
   "type": "Feature",
   "geometry": {
    "type": "Point",
    "coordinates": [
     5.7559383,
     45.178539
    ]
   },
   "properties": {
    "name": "Le Grenier à pains",
    "opening_hours": "Tu-Su 06:00-19:30"
   }
  },
  {
   "type": "Feature",
   "geometry": {
    "type": "Point",
    "coordinates": [
     5.7588509,
     45.1824246
    ]
   },
   "properties": {
    "name": "Écouter Voir",
    "opening_hours": "Mo-Fr 09:30-12:00,14:00-19:00; Sa 09:30-12:30,14:00-18:00"
   }
  },
  {
   "type": "Feature",
   "geometry": {
    "type": "Point",
    "coordinates": [
     5.718806,
     45.1944439
    ]
   },
   "properties": {
    "name": "Seven",
    "opening_hours": "Tu-Th 12:00-14:00,19:00-21:30; Fr,Sa 12:00-14:00,19:00-21:45"
   }
  },
  {
   "type": "Feature",
   "geometry": {
    "type": "Point",
    "coordinates": [
     5.7260184,
     45.1772661
    ]
   },
   "properties": {
    "name": "Maison des habitants - Capuche",
    "opening_hours": "Mo-We 08:30-12:30,13:30-18:00; Th 08:30-12:30; Fr 08:30-12:30,13:30-17:00"
   }
  },
  {
   "type": "Feature",
   "geometry": {
    "type": "Point",
    "coordinates": [
     5.7250044,
     45.1804273
    ]
   },
   "properties": {
    "name": "L'Eléfàn",
    "opening_hours": "Tu 16:00-19:00; We-Sa 10:00-13:30,16:00-19:00"
   }
  },
  {
   "type": "Feature",
   "geometry": {
    "type": "Point",
    "coordinates": [
     5.7283231,
     45.1914927
    ]
   },
   "properties": {
    "name": "Arthaud",
    "opening_hours": "Mo-Sa 10:00-19:00"
   }
  },
  {
   "type": "Feature",
   "geometry": {
    "type": "Point",
    "coordinates": [
     5.7303671,
     45.191187
    ]
   },
   "properties": {
    "name": "Librairie la Dérive",
    "opening_hours": "Mo 14:00-18:00, Tu-Fr 10:00-19:00, Sa 10:00-12:00; 14:00-19:00"
   }
  },
  {
   "type": "Feature",
   "geometry": {
    "type": "Point",
    "coordinates": [
     5.7294125,
     45.1906534
    ]
   },
   "properties": {
    "name": "BNP Paribas",
    "opening_hours": "Tu-Fr 08:30-12:15,13:30-18:00, Sa 08:30-12:30"
   }
  },
  {
   "type": "Feature",
   "geometry": {
    "type": "Point",
    "coordinates": [
     5.7492742,
     45.1519047
    ]
   },
   "properties": {
    "name": "Le 109",
    "opening_hours": "Mo-Sa 11:00-15:00,18:00-23:00; Fr,Su 18:00-23:00"
   }
  },
  {
   "type": "Feature",
   "geometry": {
    "type": "Point",
    "coordinates": [
     5.732078,
     45.1771883
    ]
   },
   "properties": {
    "name": "L'Orient Express",
    "opening_hours": "Mo-Sa 11:00-22:30; Su 18:00-21:30"
   }
  },
  {
   "type": "Feature",
   "geometry": {
    "type": "Point",
    "coordinates": [
     5.747914,
     45.185387
    ]
   },
   "properties": {
    "name": "Optique Charlois",
    "opening_hours": "Tu-Fr 09:00-12:00,14:00-19:00, Sa 09:00-12:00,14:00-18:00"
   }
  },
  {
   "type": "Feature",
   "geometry": {
    "type": "Point",
    "coordinates": [
     5.7149985,
     45.1924044
    ]
   },
   "properties": {
    "name": "Sixt",
    "opening_hours": "Mo-Fr 08:00-20:00; Sa 08:00-12:30,14:30-18:00; Su 14:30-18:30"
   }
  },
  {
   "type": "Feature",
   "geometry": {
    "type": "Point",
    "coordinates": [
     5.7171047,
     45.1904529
    ]
   },
   "properties": {
    "name": "Speed Queen",
    "opening_hours": "Mo-Su 07:00-20:00"
   }
  },
  {
   "type": "Feature",
   "geometry": {
    "type": "Point",
    "coordinates": [
     5.7171139,
     45.1900412
    ]
   },
   "properties": {
    "name": "Casino Shop",
    "opening_hours": "Mo-Sa 07:00-21:15"
   }
  },
  {
   "type": "Feature",
   "geometry": {
    "type": "Point",
    "coordinates": [
     5.75627,
     45.1777306
    ]
   },
   "properties": {
    "name": "Police nationale",
    "opening_hours": "Mo-Th 09:30-12:45, 13:30-18:00; Fr 09:30-12:45, 13:30-17:25"
   }
  },
  {
   "type": "Feature",
   "geometry": {
    "type": "Point",
    "coordinates": [
     5.7275364,
     45.1888772
    ]
   },
   "properties": {
    "name": "Jardin du thé",
    "opening_hours": "Mo-Sa 09:30-20:00"
   }
  },
  {
   "type": "Feature",
   "geometry": {
    "type": "Point",
    "coordinates": [
     5.7213055,
     45.187582
    ]
   },
   "properties": {
    "name": "Laverie Thiers",
    "opening_hours": "Mo-Su 07:00-22:00"
   }
  },
  {
   "type": "Feature",
   "geometry": {
    "type": "Point",
    "coordinates": [
     5.7192223,
     45.1875603
    ]
   },
   "properties": {
    "name": "Carrefour City",
    "opening_hours": "Su 09:00-12:30; Mo-Sa 07:00-21:00"
   }
  },
  {
   "type": "Feature",
   "geometry": {
    "type": "Point",
    "coordinates": [
     5.7216451,
     45.1902995
    ]
   },
   "properties": {
    "name": "La Rivière des Parfums",
    "opening_hours": "Mo-Sa 11:30-14:30,18:00-21:30"
   }
  },
  {
   "type": "Feature",
   "geometry": {
    "type": "Point",
    "coordinates": [
     5.7195572,
     45.1905239
    ]
   },
   "properties": {
    "name": "Carrefour City",
    "opening_hours": "Mo-Sa 07:00-22:00; Su 09:00-13:00"
   }
  },
  {
   "type": "Feature",
   "geometry": {
    "type": "Point",
    "coordinates": [
     5.7258613,
     45.178483
    ]
   },
   "properties": {
    "name": "Grenoble Stalingrad",
    "opening_hours": "Mo, Tu, Th, Fr 09:00-11:45, 14:15-17:00; Sa 09:00-12:00"
   }
  },
  {
   "type": "Feature",
   "geometry": {
    "type": "Point",
    "coordinates": [
     5.7324244,
     45.1821425
    ]
   },
   "properties": {
    "name": "Marinasie",
    "opening_hours": "Mo-Sa 11:30-14:30,18:30-22:00"
   }
  },
  {
   "type": "Feature",
   "geometry": {
    "type": "Point",
    "coordinates": [
     5.7302348,
     45.1910496
    ]
   },
   "properties": {
    "name": "La Talemelerie",
    "opening_hours": "Mo-Fr 06:45-20:00; Sa 06:45-19:30; Su 06:45-13:30"
   }
  },
  {
   "type": "Feature",
   "geometry": {
    "type": "Point",
    "coordinates": [
     5.7206692,
     45.1891968
    ]
   },
   "properties": {
    "name": "Le Chardon Bleu",
    "opening_hours": "Mo-Sa 06:45-19:45"
   }
  },
  {
   "type": "Feature",
   "geometry": {
    "type": "Point",
    "coordinates": [
     5.7210882,
     45.1891364
    ]
   },
   "properties": {
    "name": "Librairie Glénat",
    "opening_hours": "Tu-Sa 10:00-19:00"
   }
  },
  {
   "type": "Feature",
   "geometry": {
    "type": "Point",
    "coordinates": [
     5.7209539,
     45.1886882
    ]
   },
   "properties": {
    "name": "Mistigriff",
    "opening_hours": "Mo-Sa 10:00-19:30"
   }
  },
  {
   "type": "Feature",
   "geometry": {
    "type": "Point",
    "coordinates": [
     5.7163532,
     45.1858555
    ]
   },
   "properties": {
    "name": "Viet-Hung",
    "opening_hours": "Mo-Su 09:00-19:30; Tu off"
   }
  },
  {
   "type": "Feature",
   "geometry": {
    "type": "Point",
    "coordinates": [
     5.7288279,
     45.1879082
    ]
   },
   "properties": {
    "name": "La Talemelerie",
    "opening_hours": "Mo-Sa 06:30-19:30; Su 07:00-19:00"
   }
  },
  {
   "type": "Feature",
   "geometry": {
    "type": "Point",
    "coordinates": [
     5.7444786,
     45.1866816
    ]
   },
   "properties": {
    "name": "Agence Valmy",
    "opening_hours": "Tu-Fr 09:00-12:30, Tu,We,Fr 15:00-18:00, Th 15:00-18:30, Sa 08:00-12:30"
   }
  },
  {
   "type": "Feature",
   "geometry": {
    "type": "Point",
    "coordinates": [
     5.7168318,
     45.183178
    ]
   },
   "properties": {
    "name": "La Boulangerie du Croissant de Lune",
    "opening_hours": "Mo-Sa 06:30-19:00"
   }
  },
  {
   "type": "Feature",
   "geometry": {
    "type": "Point",
    "coordinates": [
     5.7455552,
     45.1670671
    ]
   },
   "properties": {
    "name": "Pharmacie Michel-Benhamane",
    "opening_hours": "Mo 09:00-12:15,14:30-19:15; Tu-Fr 08:30-12:15,14:30-19:15; Sa 09:00-12:15,14:30-18:15"
   }
  },
  {
   "type": "Feature",
   "geometry": {
    "type": "Point",
    "coordinates": [
     5.7220727,
     45.1690977
    ]
   },
   "properties": {
    "name": "Pharmacie des Alpins",
    "opening_hours": "Mo-Fr 08:30-12:30, 14:00-19:15; Sa 08:30-12:30"
   }
  },
  {
   "type": "Feature",
   "geometry": {
    "type": "Point",
    "coordinates": [
     5.720304,
     45.1908187
    ]
   },
   "properties": {
    "name": "La Petite Idée",
    "opening_hours": "Tu-Sa 12:00-14:00, 19:00-22:00"
   }
  },
  {
   "type": "Feature",
   "geometry": {
    "type": "Point",
    "coordinates": [
     5.717178,
     45.183398
    ]
   },
   "properties": {
    "name": "Au Bœuf Charolais",
    "opening_hours": "Tu-Fr 07:00-12:30; Fr 15:00-19:30; Tu-Th,Sa 15:00-19:00; Sa,Su 07:00-13:00"
   }
  },
  {
   "type": "Feature",
   "geometry": {
    "type": "Point",
    "coordinates": [
     5.7165919,
     45.1825979
    ]
   },
   "properties": {
    "name": "Le K-barré",
    "opening_hours": "Tu-Sa 12:00-14:00,19:00-22:00; Su 12:00-14:00"
   }
  },
  {
   "type": "Feature",
   "geometry": {
    "type": "Point",
    "coordinates": [
     5.7166739,
     45.1826048
    ]
   },
   "properties": {
    "name": "Saucisses sans soucis",
    "opening_hours": "Mo-Su 09:30-13:30,16:30-21:30"
   }
  },
  {
   "type": "Feature",
   "geometry": {
    "type": "Point",
    "coordinates": [
     5.7224188,
     45.1856897
    ]
   },
   "properties": {
    "name": "Kalinka",
    "opening_hours": "Mo-Sa 12:00-14:00,19:00-23:00"
   }
  },
  {
   "type": "Feature",
   "geometry": {
    "type": "Point",
    "coordinates": [
     5.723462,
     45.192509
    ]
   },
   "properties": {
    "name": "Ontario Restaurant",
    "opening_hours": "Mo-Fr 11:30-14:30, Tu-Sa 19:00-23:00"
   }
  },
  {
   "type": "Feature",
   "geometry": {
    "type": "Point",
    "coordinates": [
     5.7292624,
     45.1955477
    ]
   },
   "properties": {
    "name": "Au Vieux Manoir",
    "opening_hours": "Th-Sa,PH 00:00-07:00"
   }
  },
  {
   "type": "Feature",
   "geometry": {
    "type": "Point",
    "coordinates": [
     5.7289775,
     45.195122
    ]
   },
   "properties": {
    "name": "Kori Tika Pena",
    "opening_hours": "Tu-Su 19:30-01:00"
   }
  },
  {
   "type": "Feature",
   "geometry": {
    "type": "Point",
    "coordinates": [
     5.7281528,
     45.1947149
    ]
   },
   "properties": {
    "name": "Le Petit Rocher",
    "opening_hours": "Mo, We-Su 12:00-14:00, 19:00-23:30"
   }
  },
  {
   "type": "Feature",
   "geometry": {
    "type": "Point",
    "coordinates": [
     5.7276533,
     45.1945006
    ]
   },
   "properties": {
    "name": "La Cucina",
    "opening_hours": "Tu-Sa 11:00-15:00,18:00-24:00; Su 11:00-15:00; Mo off"
   }
  },
  {
   "type": "Feature",
   "geometry": {
    "type": "Point",
    "coordinates": [
     5.7296787,
     45.1953857
    ]
   },
   "properties": {
    "name": "Pharmacie Saint-Laurent",
    "opening_hours": "Mo-Sa 08:30-12:30,14:30-19:30"
   }
  },
  {
   "type": "Feature",
   "geometry": {
    "type": "Point",
    "coordinates": [
     5.7614652,
     45.2023608
    ]
   },
   "properties": {
    "name": "Le Taravo",
    "opening_hours": "Mo-Fr 06:30-01:00, Sa 08:00-16:00"
   }
  },
  {
   "type": "Feature",
   "geometry": {
    "type": "Point",
    "coordinates": [
     5.7616368,
     45.2023569
    ]
   },
   "properties": {
    "name": "Crédit Agricole",
    "opening_hours": "Tu-Fr 09:00-12:30,14:30-18:00; Sa 08:00-12:30; Su,Mo off"
   }
  },
  {
   "type": "Feature",
   "geometry": {
    "type": "Point",
    "coordinates": [
     5.7617602,
     45.2019638
    ]
   },
   "properties": {
    "name": "Wok Asia",
    "opening_hours": "We-Sa 11:30-14:30; Su-Tu off"
   }
  },
  {
   "type": "Feature",
   "geometry": {
    "type": "Point",
    "coordinates": [
     5.761789,
     45.2022711
    ]
   },
   "properties": {
    "name": "Optical Center",
    "opening_hours": "Mo-Sa 09:00-19:00"
   }
  },
  {
   "type": "Feature",
   "geometry": {
    "type": "Point",
    "coordinates": [
     5.7105659,
     45.178601
    ]
   },
   "properties": {
    "name": "Pressing Stop",
    "opening_hours": "Tu-Fr 08:00-19:00; Sa 08:00-12:00"
   }
  },
  {
   "type": "Feature",
   "geometry": {
    "type": "Point",
    "coordinates": [
     5.6803832,
     45.1561649
    ]
   },
   "properties": {
    "name": "Tabac-Presse le Méloine",
    "opening_hours": "Mo-Fr 06:45-12:30,15:30-19:15; Sa 08:45-12:15; Su 08:45-12:00"
   }
  },
  {
   "type": "Feature",
   "geometry": {
    "type": "Point",
    "coordinates": [
     5.7117482,
     45.1804048
    ]
   },
   "properties": {
    "name": "Casino",
    "opening_hours": "Mo-Sa 08:30-20:30, Su 09:00-12:30"
   }
  },
  {
   "type": "Feature",
   "geometry": {
    "type": "Point",
    "coordinates": [
     5.7123514,
     45.180419
    ]
   },
   "properties": {
    "name": "Pharmacie des Eaux Claires",
    "opening_hours": "Mo-Fr 08:30-19:30; Sa 09:00-19:00"
   }
  },
  {
   "type": "Feature",
   "geometry": {
    "type": "Point",
    "coordinates": [
     5.721952,
     45.1690701
    ]
   },
   "properties": {
    "name": "Clinique vétérinaire des Alpins",
    "opening_hours": "Mo-Fr 08:30-12:00, 14:00-19:00; Sa 08:30-12:30, 14:00-18:00"
   }
  },
  {
   "type": "Feature",
   "geometry": {
    "type": "Point",
    "coordinates": [
     5.7311272,
     45.1701002
    ]
   },
   "properties": {
    "name": "Centre d'information et d'orientation - Centre de ressources des métiers de l'automobile",
    "opening_hours": "Mo-Fr 08:30-12:00,13:30-17:30; Sa 08:30-12:00,13:00-17:00"
   }
  },
  {
   "type": "Feature",
   "geometry": {
    "type": "Point",
    "coordinates": [
     5.7133339,
     45.182957
    ]
   },
   "properties": {
    "name": "",
    "opening_hours": "09:00-20:00"
   }
  },
  {
   "type": "Feature",
   "geometry": {
    "type": "Point",
    "coordinates": [
     5.7137404,
     45.1839279
    ]
   },
   "properties": {
    "name": "",
    "opening_hours": "09:00-20:00"
   }
  },
  {
   "type": "Feature",
   "geometry": {
    "type": "Point",
    "coordinates": [
     5.7143204,
     45.1838439
    ]
   },
   "properties": {
    "name": "",
    "opening_hours": "09:00-20:00"
   }
  },
  {
   "type": "Feature",
   "geometry": {
    "type": "Point",
    "coordinates": [
     5.7092054,
     45.1757654
    ]
   },
   "properties": {
    "name": "Casino Shop",
    "opening_hours": "Mo-Sa 08:00-19:30; Su 09:00-12:45"
   }
  },
  {
   "type": "Feature",
   "geometry": {
    "type": "Point",
    "coordinates": [
     5.7167002,
     45.1626966
    ]
   },
   "properties": {
    "name": "Au Blé d'Or",
    "opening_hours": "Mo-Su 05:00-20:00"
   }
  },
  {
   "type": "Feature",
   "geometry": {
    "type": "Point",
    "coordinates": [
     5.7142106,
     45.187365
    ]
   },
   "properties": {
    "name": "Marché Saint-Bruno",
    "opening_hours": "Tu-Su 06:00-13:00"
   }
  },
  {
   "type": "Feature",
   "geometry": {
    "type": "Point",
    "coordinates": [
     5.759963,
     45.1590389
    ]
   },
   "properties": {
    "name": "Quinte & Sens",
    "opening_hours": "Mo-Fr 11:45-13:30; Fr-Sa 19:30-22:00"
   }
  },
  {
   "type": "Feature",
   "geometry": {
    "type": "Point",
    "coordinates": [
     5.7058558,
     45.1850299
    ]
   },
   "properties": {
    "name": "Beso Café",
    "opening_hours": "Mo-Fr 08:30-15:30"
   }
  },
  {
   "type": "Feature",
   "geometry": {
    "type": "Point",
    "coordinates": [
     5.7599462,
     45.1824234
    ]
   },
   "properties": {
    "name": "Alexandre Cifarelli Coiffure",
    "opening_hours": "Tu-Th 08:00-12:00,14:00-19:00; Fr 08:00-19:00; Sa 08:00-17:00"
   }
  },
  {
   "type": "Feature",
   "geometry": {
    "type": "Point",
    "coordinates": [
     5.7598418,
     45.1824498
    ]
   },
   "properties": {
    "name": "Mille et un pains",
    "opening_hours": "Tu-Sa 06:00-13:00,15:00-19:00; Su 06:00-13:00; Mo off"
   }
  },
  {
   "type": "Feature",
   "geometry": {
    "type": "Point",
    "coordinates": [
     5.7590758,
     45.1826772
    ]
   },
   "properties": {
    "name": "Le Chiquito",
    "opening_hours": "Mo-Sa 09:00-12:15,15:15-19:15"
   }
  },
  {
   "type": "Feature",
   "geometry": {
    "type": "Point",
    "coordinates": [
     5.7627623,
     45.1859656
    ]
   },
   "properties": {
    "name": "Feu Vert",
    "opening_hours": "Mo-Sa 08:30-19:00"
   }
  },
  {
   "type": "Feature",
   "geometry": {
    "type": "Point",
    "coordinates": [
     5.7466778,
     45.185691
    ]
   },
   "properties": {
    "name": "Dubaï",
    "opening_hours": "Tu-Sa 09:00-12:30, Tu-Sa 14:00-19:00, Su 11:00-18:00"
   }
  },
  {
   "type": "Feature",
   "geometry": {
    "type": "Point",
    "coordinates": [
     5.7467448,
     45.1856967
    ]
   },
   "properties": {
    "name": "Laverie By Kis Wash",
    "opening_hours": "Mo-Su 07:00-22:00"
   }
  },
  {
   "type": "Feature",
   "geometry": {
    "type": "Point",
    "coordinates": [
     5.7215933,
     45.1945139
    ]
   },
   "properties": {
    "name": "",
    "opening_hours": "Apr 1-Sep 15 09:00-19:30; Sep 16-Mar 31 09:00-17:30"
   }
  },
  {
   "type": "Feature",
   "geometry": {
    "type": "Point",
    "coordinates": [
     5.7262808,
     45.1798811
    ]
   },
   "properties": {
    "name": "Axel Marens",
    "opening_hours": "Tu-Fr 09:00-19:00; Sa 09:00-18:00"
   }
  },
  {
   "type": "Feature",
   "geometry": {
    "type": "Point",
    "coordinates": [
     5.7598429,
     45.1850336
    ]
   },
   "properties": {
    "name": "Méca-Shop.com",
    "opening_hours": "Mo-Fr 09:00-12:00, Mo,Tu,Th,Fr 13:30-17:30; Sa off"
   }
  },
  {
   "type": "Feature",
   "geometry": {
    "type": "Point",
    "coordinates": [
     5.7590233,
     45.182796
    ]
   },
   "properties": {
    "name": "",
    "opening_hours": "Mo 14:00-19:00, Tu-Fr 09:00-12:00,14:00-19:00, Sa 09:00-12:00"
   }
  },
  {
   "type": "Feature",
   "geometry": {
    "type": "Point",
    "coordinates": [
     5.7551696,
     45.1919925
    ]
   },
   "properties": {
    "name": "Laverie Ouest",
    "opening_hours": "Mo-Su 07:00-22:00"
   }
  },
  {
   "type": "Feature",
   "geometry": {
    "type": "Point",
    "coordinates": [
     5.7155553,
     45.178902
    ]
   },
   "properties": {
    "name": "Alpas",
    "opening_hours": "Mo-Fr 09:00-12:00, 13:30-17:00"
   }
  },
  {
   "type": "Feature",
   "geometry": {
    "type": "Point",
    "coordinates": [
     5.7495108,
     45.1536064
    ]
   },
   "properties": {
    "name": "Poste d'Eybens",
    "opening_hours": "Mo-We,Fr 08:30-12:00,14:00-17:30; Th 08:30-12:00,14:15-17:30; Sa 09:00-12:00; PH off; 2021 Dec 31 08:30-12:00"
   }
  },
  {
   "type": "Feature",
   "geometry": {
    "type": "Point",
    "coordinates": [
     5.7167809,
     45.1897971
    ]
   },
   "properties": {
    "name": "La Ferme à Dédé",
    "opening_hours": "Mo-Su 14:00-14:30, 19:00-22:30"
   }
  },
  {
   "type": "Feature",
   "geometry": {
    "type": "Point",
    "coordinates": [
     5.7131634,
     45.1882764
    ]
   },
   "properties": {
    "name": "La Niçoise",
    "opening_hours": "Mo-Su 06:00-19:00"
   }
  },
  {
   "type": "Feature",
   "geometry": {
    "type": "Point",
    "coordinates": [
     5.7431751,
     45.1649341
    ]
   },
   "properties": {
    "name": "Tabac des Maisons Neuves",
    "opening_hours": "Mo-Fr 08:00-19:00; Sa 09:00-19:00"
   }
  },
  {
   "type": "Feature",
   "geometry": {
    "type": "Point",
    "coordinates": [
     5.6937388,
     45.1699722
    ]
   },
   "properties": {
    "name": "L'Art & Gourmet",
    "opening_hours": "Mo-Fr 06:00-19:00; Sa 06:30-19:00"
   }
  },
  {
   "type": "Feature",
   "geometry": {
    "type": "Point",
    "coordinates": [
     5.6937435,
     45.1700998
    ]
   },
   "properties": {
    "name": "Pharmacie de la Plaine",
    "opening_hours": "Mo-Fr 08:30-12:30,14:00-19:30; Sa 08:30-12:30,14:00-19:00"
   }
  },
  {
   "type": "Feature",
   "geometry": {
    "type": "Point",
    "coordinates": [
     5.6938398,
     45.170176
    ]
   },
   "properties": {
    "name": "",
    "opening_hours": "Tu-Fr 08:30-12:30,14:00-18:00; Th 08:30-12:30,16:00-18:00; Sa 08:30-12:30"
   }
  },
  {
   "type": "Feature",
   "geometry": {
    "type": "Point",
    "coordinates": [
     5.6937439,
     45.1698599
    ]
   },
   "properties": {
    "name": "52e Avenue",
    "opening_hours": "Tu-Th 09:00-19:00; Fr 09:00-20:00; Sa 09:00-17:00"
   }
  },
  {
   "type": "Feature",
   "geometry": {
    "type": "Point",
    "coordinates": [
     5.6927665,
     45.1764422
    ]
   },
   "properties": {
    "name": "Vert tendre",
    "opening_hours": "Mo-Fr 09:15-12:00; Tu,Th,Fr 14:30-19:00; We 15:00-19:00; Sa 09:15-12:15,15:00-19:15; Su 09:30-12:15"
   }
  },
  {
   "type": "Feature",
   "geometry": {
    "type": "Point",
    "coordinates": [
     5.6930246,
     45.1766078
    ]
   },
   "properties": {
    "name": "Auto-École Réflexe",
    "opening_hours": "Mo-Fr 17:30-19:30; Sa 14:30-18:30"
   }
  },
  {
   "type": "Feature",
   "geometry": {
    "type": "Point",
    "coordinates": [
     5.6932492,
     45.1766561
    ]
   },
   "properties": {
    "name": "Crédit Agricole",
    "opening_hours": "Tu-Fr 08:30-12:00, Tu,We,Fr 14:30-18:00; Th 15:00-18:30; Sa 08:00-12:30"
   }
  },
  {
   "type": "Feature",
   "geometry": {
    "type": "Point",
    "coordinates": [
     5.692478,
     45.1763265
    ]
   },
   "properties": {
    "name": "Casino",
    "opening_hours": "Mo-Th 08:00-19:30; Fr-Sa 08:00-20:00; Su 08:30-12:30"
   }
  },
  {
   "type": "Feature",
   "geometry": {
    "type": "Point",
    "coordinates": [
     5.6932532,
     45.1756813
    ]
   },
   "properties": {
    "name": "Pharmacie de la Fauconnière",
    "opening_hours": "Mo-Fr 08:30-12:15,14:00-19:30; Sa 08:30-12:15,14:00-19:00"
   }
  },
  {
   "type": "Feature",
   "geometry": {
    "type": "Point",
    "coordinates": [
     5.6931004,
     45.1766233
    ]
   },
   "properties": {
    "name": "Presse Papeterie Fauconniere",
    "opening_hours": "Mo-Sa 07:15-20:00; Su 08:15-20:00"
   }
  },
  {
   "type": "Feature",
   "geometry": {
    "type": "Point",
    "coordinates": [
     5.6929648,
     45.176601
    ]
   },
   "properties": {
    "name": "Blanchisserie des écureuils",
    "opening_hours": "Tu-Fr 08:30-12:00,14:30-18:30; Sa 09:00-12:00,15:00-18:00"
   }
  },
  {
   "type": "Feature",
   "geometry": {
    "type": "Point",
    "coordinates": [
     5.7170417,
     45.1861012
    ]
   },
   "properties": {
    "name": "Aconit",
    "opening_hours": "Mo-Fr 10:00-12:00"
   }
  },
  {
   "type": "Feature",
   "geometry": {
    "type": "Point",
    "coordinates": [
     5.7128012,
     45.1882968
    ]
   },
   "properties": {
    "name": "David & Son",
    "opening_hours": "Tu-Fr 09:00-19:00, Sa 09:00-18:00"
   }
  },
  {
   "type": "Feature",
   "geometry": {
    "type": "Point",
    "coordinates": [
     5.7137746,
     45.1882475
    ]
   },
   "properties": {
    "name": "David Pâtissier",
    "opening_hours": "Tu-Su 06:30-20:00"
   }
  },
  {
   "type": "Feature",
   "geometry": {
    "type": "Point",
    "coordinates": [
     5.7177558,
     45.1859424
    ]
   },
   "properties": {
    "name": "La Grange à Pain",
    "opening_hours": "Tu-Sa 07:00-14:00,16:00-19:00; Su 07:00-13:00"
   }
  },
  {
   "type": "Feature",
   "geometry": {
    "type": "Point",
    "coordinates": [
     5.7126374,
     45.1858626
    ]
   },
   "properties": {
    "name": "Laverie Nicolas Chorier",
    "opening_hours": "Mo-Su 07:00-20:00"
   }
  },
  {
   "type": "Feature",
   "geometry": {
    "type": "Point",
    "coordinates": [
     5.6932408,
     45.1755412
    ]
   },
   "properties": {
    "name": "Borealyss",
    "opening_hours": "Tu-Fr 09:00-19:00; Sa 09:00-17:00"
   }
  },
  {
   "type": "Feature",
   "geometry": {
    "type": "Point",
    "coordinates": [
     5.6939234,
     45.1793874
    ]
   },
   "properties": {
    "name": "La Vie Claire",
    "opening_hours": "Mo-Sa 08:30-20:00; Su 09:00-13:00"
   }
  },
  {
   "type": "Feature",
   "geometry": {
    "type": "Point",
    "coordinates": [
     5.6933016,
     45.1777527
    ]
   },
   "properties": {
    "name": "Le Cockpit",
    "opening_hours": "Mo-Sa 12:00-14:00"
   }
  },
  {
   "type": "Feature",
   "geometry": {
    "type": "Point",
    "coordinates": [
     5.7514967,
     45.1658666
    ]
   },
   "properties": {
    "name": "L'Instant Coiffure",
    "opening_hours": "Tu-Fr 09:00-12:00,14:00-19:00; Sa 09:00-12:00,14:00-17:00"
   }
  },
  {
   "type": "Feature",
   "geometry": {
    "type": "Point",
    "coordinates": [
     5.7515659,
     45.1659059
    ]
   },
   "properties": {
    "name": "Pharmactive",
    "opening_hours": "Mo-Fr 08:00-12:15,14:00-19:15; Sa 09:00-12:15,14:00-17:00"
   }
  },
  {
   "type": "Feature",
   "geometry": {
    "type": "Point",
    "coordinates": [
     5.6975519,
     45.1799462
    ]
   },
   "properties": {
    "name": "Déclic Coiffure",
    "opening_hours": "Tu-Th 08:00-12:00,14:00-19:00; Fr 08:00-19:00; Sa 07:30-16:30"
   }
  },
  {
   "type": "Feature",
   "geometry": {
    "type": "Point",
    "coordinates": [
     5.6976955,
     45.1799493
    ]
   },
   "properties": {
    "name": "Emea Institut",
    "opening_hours": "Mo 13:00-19:00; Tu-Fr 10:00-19:00; Sa 09:30-17:00"
   }
  },
  {
   "type": "Feature",
   "geometry": {
    "type": "Point",
    "coordinates": [
     5.6973951,
     45.1799586
    ]
   },
   "properties": {
    "name": "Hidri Immo Plus",
    "opening_hours": "Mo-Fr 09:00-12:00, 14:00-19:00; Sa 09:00-12:00"
   }
  },
  {
   "type": "Feature",
   "geometry": {
    "type": "Point",
    "coordinates": [
     5.6968939,
     45.1799353
    ]
   },
   "properties": {
    "name": "Pizza Della Casa",
    "opening_hours": "Mo-Fr 10:30-13:30, 17:30-22:30; Sa 17:30-22:30"
   }
  },
  {
   "type": "Feature",
   "geometry": {
    "type": "Point",
    "coordinates": [
     5.7453974,
     45.1873359
    ]
   },
   "properties": {
    "name": "Grenoble Valmy",
    "opening_hours": "Sa 08:30-12:30; Tu,Th 09:00-12:30,14:30-18:00; We,Fr 09:00-12:30,13:30-18:00"
   }
  },
  {
   "type": "Feature",
   "geometry": {
    "type": "Point",
    "coordinates": [
     5.7280108,
     45.1946282
    ]
   },
   "properties": {
    "name": "Laverie Bleu Claire",
    "opening_hours": "Mo-Su 07:00-20:00"
   }
  },
  {
   "type": "Feature",
   "geometry": {
    "type": "Point",
    "coordinates": [
     5.7652634,
     45.1929537
    ]
   },
   "properties": {
    "name": "Médiathèque",
    "opening_hours": "Mo-Fr 10:00-18:30"
   }
  },
  {
   "type": "Feature",
   "geometry": {
    "type": "Point",
    "coordinates": [
     5.7307412,
     45.1909914
    ]
   },
   "properties": {
    "name": "Marché Place Sainte-Claire",
    "opening_hours": "Tu-Fr 07:00-13:00; Sa-Su 07:00-13:30"
   }
  },
  {
   "type": "Feature",
   "geometry": {
    "type": "Point",
    "coordinates": [
     5.7290019,
     45.1906758
    ]
   },
   "properties": {
    "name": "La Croissanterie",
    "opening_hours": "Mo-Sa 08:00-19:00"
   }
  },
  {
   "type": "Feature",
   "geometry": {
    "type": "Point",
    "coordinates": [
     5.728697,
     45.1888323
    ]
   },
   "properties": {
    "name": "Pharmacie Saint-Jacques",
    "opening_hours": "Mo-Sa 09:00-19:00"
   }
  },
  {
   "type": "Feature",
   "geometry": {
    "type": "Point",
    "coordinates": [
     5.7292284,
     45.1890217
    ]
   },
   "properties": {
    "name": "Jean Louis David",
    "opening_hours": "Mo 10:00-19:00, Tu-Sa 09:30-19:00"
   }
  },
  {
   "type": "Feature",
   "geometry": {
    "type": "Point",
    "coordinates": [
     5.7289065,
     45.187551
    ]
   },
   "properties": {
    "name": "Pharmacie de l'Étoile",
    "opening_hours": "Mo-Sa 08:30-19:30"
   }
  },
  {
   "type": "Feature",
   "geometry": {
    "type": "Point",
    "coordinates": [
     5.730768,
     45.1911483
    ]
   },
   "properties": {
    "name": "Le Casse-Croûte à Dédé",
    "opening_hours": "Mo-Su 9:00-23:00"
   }
  },
  {
   "type": "Feature",
   "geometry": {
    "type": "Point",
    "coordinates": [
     5.7410246,
     45.1677785
    ]
   },
   "properties": {
    "name": "Caisse d'épargne Malherbes",
    "opening_hours": "Tu-Fr 09:15-12:30, 13:30-18:00; Sa 08:45-12:30"
   }
  },
  {
   "type": "Feature",
   "geometry": {
    "type": "Point",
    "coordinates": [
     5.7060303,
     45.1842083
    ]
   },
   "properties": {
    "name": "Le Bouillon",
    "opening_hours": "Mo-Fr 09:30-16:30"
   }
  },
  {
   "type": "Feature",
   "geometry": {
    "type": "Point",
    "coordinates": [
     5.7184604,
     45.1898202
    ]
   },
   "properties": {
    "name": "Norbert Meunier",
    "opening_hours": "Tu-Sa 09:00-19:00"
   }
  },
  {
   "type": "Feature",
   "geometry": {
    "type": "Point",
    "coordinates": [
     5.7091264,
     45.1597379
    ]
   },
   "properties": {
    "name": "La Boucherie",
    "opening_hours": "Su-Th 11:45-14:00,19:00-22:00; Fr,Sa 11:45-14:00,19:00-22:45"
   }
  },
  {
   "type": "Feature",
   "geometry": {
    "type": "Point",
    "coordinates": [
     5.7090959,
     45.1600502
    ]
   },
   "properties": {
    "name": "Casabio",
    "opening_hours": "Mo-Sa 09:00-19:00"
   }
  },
  {
   "type": "Feature",
   "geometry": {
    "type": "Point",
    "coordinates": [
     5.7089511,
     45.1603047
    ]
   },
   "properties": {
    "name": "Eden Literie",
    "opening_hours": "Tu-Sa 10:00-12:00,14:00-19:00"
   }
  },
  {
   "type": "Feature",
   "geometry": {
    "type": "Point",
    "coordinates": [
     5.7499677,
     45.1784546
    ]
   },
   "properties": {
    "name": "Boucherie Numidie",
    "opening_hours": "Tu-Fr,Su 09:00-13:00, 15:00-19:00; Sa 09:00-19:00"
   }
  },
  {
   "type": "Feature",
   "geometry": {
    "type": "Point",
    "coordinates": [
     5.692807,
     45.1766119
    ]
   },
   "properties": {
    "name": "Tiff'Anna",
    "opening_hours": "Tu-Fr 10:00-19:00; Sa 10:00-16:00"
   }
  },
  {
   "type": "Feature",
   "geometry": {
    "type": "Point",
    "coordinates": [
     5.6927947,
     45.1760596
    ]
   },
   "properties": {
    "name": "Bibliothèque municipale",
    "opening_hours": "Tu 11:00-13:00,16:00-19:00; We 10:00-12:00,13:00-18:00; Fr 16:00-19:00; Sa 09:30-13:00"
   }
  },
  {
   "type": "Feature",
   "geometry": {
    "type": "Point",
    "coordinates": [
     5.6930415,
     45.1762545
    ]
   },
   "properties": {
    "name": "Il Gusto dell’ Italia",
    "opening_hours": "Mo 17:30-21:00; Tu-Sa 11:30-14:00,17:30-21:00"
   }
  },
  {
   "type": "Feature",
   "geometry": {
    "type": "Point",
    "coordinates": [
     5.6932279,
     45.1762494
    ]
   },
   "properties": {
    "name": "Krys",
    "opening_hours": "Mo-Sa 09:00-12:00,14:00-19:00"
   }
  },
  {
   "type": "Feature",
   "geometry": {
    "type": "Point",
    "coordinates": [
     5.6970724,
     45.1716124
    ]
   },
   "properties": {
    "name": "Boucherie L'Authentique",
    "opening_hours": "Tu-Sa 07:30-12:30,15:30-19:30; Su 07:30-12:00"
   }
  },
  {
   "type": "Feature",
   "geometry": {
    "type": "Point",
    "coordinates": [
     5.6957554,
     45.1715718
    ]
   },
   "properties": {
    "name": "Les Halles Charly",
    "opening_hours": "Tu-Sa 07:30-12:15,15:30-19:15; Su 07:30-12:15"
   }
  },
  {
   "type": "Feature",
   "geometry": {
    "type": "Point",
    "coordinates": [
     5.7166372,
     45.1906308
    ]
   },
   "properties": {
    "name": "L'Inattendu",
    "opening_hours": "Mo-Fr 10:30-14:30,19:00-22:00"
   }
  },
  {
   "type": "Feature",
   "geometry": {
    "type": "Point",
    "coordinates": [
     5.7164973,
     45.1906103
    ]
   },
   "properties": {
    "name": "Le Gratin dauphinois",
    "opening_hours": "Mo-Fr 11:00-14:00,19:00-22:00"
   }
  },
  {
   "type": "Feature",
   "geometry": {
    "type": "Point",
    "coordinates": [
     5.71648,
     45.1903457
    ]
   },
   "properties": {
    "name": "Liberty Pizzas",
    "opening_hours": "Mo-Sa 11:45-13:45,18:30-22:15; Su 18:30-22:15"
   }
  },
  {
   "type": "Feature",
   "geometry": {
    "type": "Point",
    "coordinates": [
     5.7145025,
     45.1886034
    ]
   },
   "properties": {
    "name": "Oriade - Laboratoire d'analyses",
    "opening_hours": "Mo-Fr 07:00-12:30,14:00-18:00; Sa 07:30-12:00"
   }
  },
  {
   "type": "Feature",
   "geometry": {
    "type": "Point",
    "coordinates": [
     5.7162774,
     45.1885218
    ]
   },
   "properties": {
    "name": "",
    "opening_hours": "Mo-Fr 09:30-12:30,13:30-18:45; Sa 09:00-12:00"
   }
  },
  {
   "type": "Feature",
   "geometry": {
    "type": "Point",
    "coordinates": [
     5.716486,
     45.1882817
    ]
   },
   "properties": {
    "name": "Orpi",
    "opening_hours": "Mo-Fr 09:30-12:00, 14:00-18:00"
   }
  },
  {
   "type": "Feature",
   "geometry": {
    "type": "Point",
    "coordinates": [
     5.7172687,
     45.189722
    ]
   },
   "properties": {
    "name": "Shiva",
    "opening_hours": "Mo,Tu,Th-Sa 12:00-14:00,19:00-22:00"
   }
  },
  {
   "type": "Feature",
   "geometry": {
    "type": "Point",
    "coordinates": [
     5.7165826,
     45.1885296
    ]
   },
   "properties": {
    "name": "D'Enfer Pub",
    "opening_hours": "Tu-Sa 18:00-02:00"
   }
  },
  {
   "type": "Feature",
   "geometry": {
    "type": "Point",
    "coordinates": [
     5.7173545,
     45.1895722
    ]
   },
   "properties": {
    "name": "Velvet Studio",
    "opening_hours": "Tu-Sa 11:00-18:00"
   }
  },
  {
   "type": "Feature",
   "geometry": {
    "type": "Point",
    "coordinates": [
     5.7170152,
     45.1900504
    ]
   },
   "properties": {
    "name": "Boulangerie Pâtisserie Coste",
    "opening_hours": "Mo-Sa 06:30-20:00; Su off"
   }
  },
  {
   "type": "Feature",
   "geometry": {
    "type": "Point",
    "coordinates": [
     5.7172327,
     45.1900225
    ]
   },
   "properties": {
    "name": "Mei Shan",
    "opening_hours": "Mo, Tu, Th-Sa 12:00-14:00, 19:00-22:00; We 11:30-13:30, 18:30-20:30"
   }
  },